sno,district,mandal,village,lat_gis,long_gis,gwl,season,pH,E.C,TDS,CO3,HCO3,Cl,F,NO3 ,SO4,Na,K,Ca,Mg,T.H,SAR,Classification,RSC  meq  / L,Classification.1
1,ADILABAD,Adilabad,Adilabad,19.6683,78.5247,5.09,postmonsoon 2018 ,8.28,745,476.8,0,220,60,0.44,42.27681818,46,49,4,48,38.896,279.9342105,1.273327902,C2S1,-1.198684211,P.S.
2,ADILABAD,Bazarhatnur,Bazarhatnur,19.458888,78.350833,5.1,postmonsoon 2018 ,8.29,921,589.44,0,230,80,0.56,100.6590909,68,42,5,56,63.206,399.8930921,0.913165517,C3S1,-3.397861842,P.S.
3,ADILABAD,Gudihatnoor,Gudihatnoor,19.525555,78.512222,4.98,postmonsoon 2018 ,7.69,510,326.4,0,200,30,0.66,41.47154545,44,45,2,24,38.896,219.9342105,1.319283964,C2S1,-0.398684211,P.S.
4,ADILABAD,Jainath,Jainath,19.730555,78.64,5.75,postmonsoon 2018 ,8.09,422,270.08,0,160,10,0.58,10.66986364,35,27,1,32,19.448,159.9671053,0.928155164,C2S1,0.000657895,P.S.
5,ADILABAD,Narnoor,Narnoor,19.495665,78.852654,2.15,postmonsoon 2018 ,8.21,2321,1485.44,0,300,340,2.56,128.8436364,280,298,5,56,92.378,519.84375,5.682664477,C4S2,-4.396875,P.S.
6,ADILABAD,Neradigonda,Neradigonda,19.29375,78.41216,8.8,postmonsoon 2018 ,8.29,1030,659.2,0,340,60,0.61,66.435,43,73,22,80,34.034,339.9424342,1.72144176,C3S1,0.001151316,P.S.
7,ADILABAD,Talamadugu,Talamadugu,19.6334,78.3969,3.95,postmonsoon 2018 ,7.62,2129,1362.56,0,340,330,0.65,193.2654545,143,162,13,88,126.412,739.7861842,2.589608252,C3S1,-7.995723684,P.S.
8,ADILABAD,Tamsi,Tamsi,19.6811,78.4268,3.7,postmonsoon 2018 ,8.31,982,628.48,30,210,40,1.8,144.9490909,70,85,5,48,43.758,299.9259868,2.133949028,C3S1,-1.198519737,P.S.
9,ADILABAD,Utnoor,Utnoor,19.3789,78.7685,3.12,postmonsoon 2018 ,8.22,2420,1548.8,0,420,290,0.53,134.8831818,268,321,6,48,97.24,519.8355263,6.121307804,C4S2,-1.996710526,P.S.
10,BHADRADRI,Annapureddypalli,Annapureddypalli,17.354519,80.826104,15.6,postmonsoon 2018 ,8.05,250,160,0,57.63929176,30,0.07,24.3595,4,10.20021285,3.2,24,9.724,99.98355263,0.443523991,C2S1,-0.846885217,P.S.
11,BHADRADRI,Ashwapuram,Aswapuram,17.841678,80.809241,5.59,postmonsoon 2018 ,7.97,1840,1177.6,0,207.8719019,380,0.59,159.444,37,150.3975766,1.9,64,106.964,599.8190789,2.669948378,C3S1,-7.83894354,P.S.
12,BHADRADRI,Bhadrachalam,Bhadrachalam,17.666775,80.900922,5.36,postmonsoon 2018 ,7.93,1550,992,0,547.1956631,140,0.9,11.29395,13,190.9923317,6,24,72.93,359.8766447,4.377349903,C3S1,3.746380368,U.S.
13,BHADRADRI,Burgampad,M.Banjara,17.6447,80.7911,6.02,postmonsoon 2018 ,8.5,1390,889.6,60,299.9504311,170,0.71,70.864,30,161.8440782,8,24,68.068,339.8848684,3.816832154,C3S1,0.401311253,P.S.
14,BHADRADRI,Chandrugonda,Ravikampadu,17.3986,80.6106,11.75,postmonsoon 2018 ,8,2520,1612.8,0,240.9818024,280,0.63,735.214,18,235.1246184,17,24,165.308,739.7203947,3.758689678,C4S1,-9.974771846,P.S.
15,BHADRADRI,Dummugudem,Bandirevu,17.92,80.92,2.68,postmonsoon 2018 ,8.66,869,556.16,40,249.5312086,90,1.03,7.9722,7,72.64980488,0.77,40,43.758,279.9259868,1.887926173,C3S1,0.192104435,P.S.
16,BHADRADRI,Gundala,Kanchanapalli,17.79,80.42,1.6,postmonsoon 2018 ,8.24,782,500.48,0,114.2435835,60,0.29,219.2355,11,22.59306207,67.13,56,29.172,259.9506579,0.609258784,C3S1,-2.914141488,P.S.
17,BHADRADRI,Julurpadu,P. Narsapuram,17.438169,80.520318,16.22,postmonsoon 2018 ,8.63,2880,1843.2,60,500.1277753,480,0.73,210.3775,18.25,326.4744644,19.5,32,155.584,719.7368421,5.290960448,C4S2,-3.192181337,P.S.
18,BHADRADRI,Karakagudem,Karakagudem,18.034655,80.568147,2.58,postmonsoon 2018 ,7.18,490,313.6,0,177.4579446,40,1.11,0.4429,8,29.8891904,17.6,32,19.448,159.9671053,1.027474311,C2S1,0.349816786,P.S.
19,BHADRADRI,Laxmidevipalli,Laxmidevipalli,17.573,80.619,4.34,postmonsoon 2018 ,7.84,1010,646.4,0,248.2682761,110,0.47,95.2235,19,81.68477438,9.8,72,34.034,319.9424342,1.985534124,C3S1,-1.433483162,P.S.
20,BHADRADRI,Manuguru,Pagideru,17.97,80.73,3.59,postmonsoon 2018 ,8.93,460,294.4,40,142.3407799,30,0.47,0.8858,2.25,39.99707701,35.47,32,4.862,99.99177632,1.739074858,C2S1,1.646980071,MR
21,BHADRADRI,Palwancha,REGELLA,17.95,80.58,4.22,postmonsoon 2018 ,7.79,1081,691.84,0,153.5363021,160,0.26,141.728,40,85.27975782,16.1,64,43.758,339.9259868,2.011064218,C3S1,-3.727793695,P.S.
22,BHADRADRI,Tekulapalli,Bethampudi,17.56,80.45,2.75,postmonsoon 2018 ,8.02,2080,1331.2,0,208.1390606,360,0.49,335.2753,41.75,68.17983978,1.9,120,145.86,899.7532895,0.98824908,C3S1,-13.83228458,P.S.
23,BHADRADRI,Tekulapalli,Mutyalampadu,17.54,80.5,5.38,postmonsoon 2018 ,8.57,1290,825.6,40,352.8490341,130,0.98,57.35555,15.5,193.8426385,7.9,40,29.172,219.9506579,5.682753839,C3S2,3.457967525,U.S.
24,BHADRADRI,Yellandu,Komararam,17.71,80.32,4.36,postmonsoon 2018 ,8.84,991,634.24,60,242.0656571,110,1.5,18.136755,18,73.11603375,1.23,72,38.896,339.9342105,1.724198853,C3S1,-0.757371069,P.S.
25,BHUPALPALLY,Ghanpur Mulug,Chelpur(D),18.368545,79.853503,4.53,postmonsoon 2018 ,8.02,421,269.44,0,110,20,0.27,3.422409091,57,27,2,24,19.448,139.9671053,0.992254181,C2S1,-0.599342105,P.S.
26,BHUPALPALLY,Kataram,Shankarampally 125(D),18.6022,79.8983,20.82,postmonsoon 2018 ,7.71,404,258.56,0,110,40,0.36,22.145,14,16,4,24,24.31,159.9588816,0.550032013,C2S1,-0.999177632,P.S.
27,BHUPALPALLY,Mahadevpur,Ambatipalli,18.695678,80.061858,21.57,postmonsoon 2018 ,8.1,368,235.52,0,110,30,0.14,29.99640909,14,22,3,32,14.586,139.9753289,0.808479657,C2S1,-0.599506579,P.S.
28,BHUPALPALLY,Regonda,Regonda,18.24,79.7775,8.77,postmonsoon 2018 ,7.94,1452,929.28,0,260,190,1.04,121.3948636,88,156,1,48,63.206,379.8930921,3.479894391,C3S1,-2.397861842,P.S.
29,HYDERABAD,Ameerpet,S.R.Nagar,17.442333,78.443916,17.95,postmonsoon 2018 ,7.07,819,524.16,0,274.9990597,60,1.56,37.42505,15,33.18059628,1.17,104,19.448,339.9671053,0.782416322,C3S1,-1.299360911,P.S.
30,HYDERABAD,Asifnagar,Himayanagar,17.397638,78.44525,4.83,postmonsoon 2018 ,7.17,1149,735.36,0,215.6713142,220,2.49,22.167145,24,164.4849717,2.1,72,9.724,219.9835526,4.821734384,C3S1,-0.086244769,P.S.
31,HYDERABAD,Asifnagar,Kulsanapur,17.374,78.437,6.18,postmonsoon 2018 ,7.26,1194,764.16,0,366.7292285,110,1.08,58.68425,21,101.9418385,16.74,96,29.172,359.9506579,2.336162993,C3S1,0.135571412,P.S.
32,HYDERABAD,Bandlaguda,Chandraingutta,17.333,78.484,9.78,postmonsoon 2018 ,7.05,1445,924.8,0,398.6932882,170,0.841,52.7051,33,94.40207972,3.56,160,29.172,519.9506579,1.800000642,C3S1,-2.425147394,P.S.
33,HYDERABAD,Charminar,Darul Shifa,17.381,78.485,5.65,postmonsoon 2018 ,7.58,779,498.56,0,275.0978692,60,0.794,10.164555,17,57.11590859,22.89,56,24.31,239.9588816,1.603100831,C3S1,0.702779753,P.S.
34,HYDERABAD,Maredpally,Maredpally(s),17.441,78.509,,postmonsoon 2018 ,6.96,1379,882.56,0,316.4927306,160,1.6,118.6972,43,80.16061447,1.7,168,24.31,519.9588816,1.528441078,C3S1,-4.069323019,P.S.
35,HYDERABAD,Nampally,Nampally,17.385,78.474,2.41,postmonsoon 2018 ,8.38,1231,787.84,40,346.3307385,120,1.23,38.31085,22,105.3718166,9.9,80,43.758,379.9259868,2.35042897,C3S1,0.128095032,P.S.
36,HYDERABAD,Saidabad,Juvinile home,17.361,78.508,4.43,postmonsoon 2018 ,7.48,839,536.96,0,227.687161,90,0.835,52.04075,18,78.69718452,9.89,64,19.448,239.9671053,2.20879547,C3S1,-0.245598886,P.S.
37,JAGITYAL,Dharmapuri,Dharmapuri,18.946944,79.101944,5.32,postmonsoon 2018 ,8.2,2227,1425.28,0,140,520,0.55,39.45836364,248,282,10,88,77.792,539.8684211,5.276881116,C3S1,-7.997368421,P.S.
38,JAGITYAL,Gollapalli,Gollapalli,18.7906,79.0522,4.44,postmonsoon 2018 ,8.27,776,496.64,0,100,150,0.91,63.21390909,73,85,6,24,48.62,259.9177632,2.292308735,C3S1,-3.198355263,P.S.
39,JAGITYAL,Ibrahimpatnam,Ibrahimpatnam,18.898611,78.579444,3.21,postmonsoon 2018 ,7.97,1140,729.6,0,190,110,1.53,77.30618182,148,135,7,40,38.896,259.9342105,3.640610452,C3S1,-1.398684211,P.S.
40,JAGITYAL,Jagityal,Jagityal,18.8252,78.8461,9.19,postmonsoon 2018 ,7.99,624,399.36,0,100,100,0.27,45.09527273,68,92,1,24,19.448,139.9671053,3.381014248,C2S1,-0.799342105,P.S.
41,JAGITYAL,Kathalapur,Kathalapur,18.752777,78.689722,7.57,postmonsoon 2018 ,7.92,1027,657.28,0,180,140,0.91,41.67286364,124,107,6,64,34.034,299.9424342,2.686191595,C3S1,-2.398848684,P.S.
42,JAGITYAL,Kodimal,Chepial,18.624722,78.935833,10.35,postmonsoon 2018 ,8.07,564,360.96,0,140,50,0.49,5.234272727,60,70,2,40,19.448,179.9671053,2.268682068,C2S1,-0.799342105,P.S.
43,JAGITYAL,Korutla,Korutla,18.818611,78.706388,6.08,postmonsoon 2018 ,8.21,1083,693.12,0,190,170,1.31,62.40863636,119,30,2,56,97.24,539.8355263,0.561387435,C3S1,-6.996710526,P.S.
44,JAGITYAL,Mallapur,Mallapur,18.9647,78.7064,6.42,postmonsoon 2018 ,8.19,973,622.72,0,200,100,1.15,62.81127273,100,165,14,48,5,120,6.548856666,C3S1,1.6,MR
45,JAGITYAL,Mallial,Nukapalli,18.7094,78.9222,8.53,postmonsoon 2018 ,8.33,1458,933.12,80,380,240,2.43,18.31995455,115,202,14,80,48.62,399.9177632,4.391755826,C3S1,1.201644737,P.S.
46,JAGITYAL,Metpalli,Metpalli,18.847777,78.620555,13.53,postmonsoon 2018 ,8.12,1234,789.76,0,310,140,2.89,22.74895455,86,165,45,24,34.034,199.9424342,5.073452757,C3S1,2.201151316,MR
47,JAGITYAL,Pegadapalli,Pegadapalli,18.706388,79.064444,3.47,postmonsoon 2018 ,8.17,1265,809.6,0,310,120,2.4,46.5045,41,200,13,24,38.896,219.9342105,5.863484282,C3S1,1.801315789,MR
48,JAGITYAL,Raikal,Raikal,18.910338,78.802852,2.7,postmonsoon 2018 ,7.97,742,474.88,0,90,120,1.22,43.68604545,100,52,4,64,29.172,279.9506579,1.351247058,C2S1,-3.799013158,P.S.
49,JAGITYAL,Sarangapur,Sarangapur,18.929722,78.958055,4.55,postmonsoon 2018 ,8.17,1087,695.68,0,140,150,2.25,82.54045455,122,112,2,56,38.896,299.9342105,2.811753112,C3S1,-3.198684211,P.S.
50,JAGITYAL,Velgatur,Velgatur,18.8353,79.1697,3.95,postmonsoon 2018 ,8.34,1057,676.48,50,200,150,0.71,62.81127273,115,114,4,56,58.344,379.9013158,2.542972223,C3S1,-2.598026316,P.S.
51,JANGAON,Bachannapet,Bachannapet,17.7908,79.0422,15.18,postmonsoon 2018 ,8.34,550,352,30,160,30,1.55,24.76213636,44,61,8,16,29.172,159.9506579,2.097050957,C2S1,0.600986842,P.S.
52,JANGAON,Devaruppula,Singarajupalli,17.5919,79.2738,10.95,postmonsoon 2018 ,8.07,1664,1064.96,0,230,230,0.65,177.16,152,188,8,80,58.344,439.9013158,3.897197208,C3S1,-4.198026316,P.S.
53,JANGAON,Jangaon,Jangaon,17.6973,79.1474,8.02,postmonsoon 2018 ,8.27,923,590.72,0,210,110,0.81,72.87718182,85,114,6,48,34.034,259.9424342,3.07424464,C3S1,-0.998848684,P.S.
54,JANGAON,Lingala ghanpur,Lingala ghanpur,17.6591,79.1997,10.15,postmonsoon 2018 ,8.45,1053,673.92,50,220,110,0.37,46.30318182,90,133,7,48,34.034,259.9424342,3.586618747,C3S1,0.201151316,P.S.
55,JANGAON,Palakurthi,Palakurthi,17.6691,79.4225,17.95,postmonsoon 2018 ,8.23,307,196.48,0,130,20,1.21,5.435590909,27,42,2,8,19.448,99.96710526,1.826387374,C2S1,0.600657895,P.S.
56,JANGAON,Raghunadhapalli,Raghunadhapalli,17.7647,79.2636,34.85,postmonsoon 2018 ,8.33,1280,819.2,30,270,150,1.36,43.08209091,105,136,3,56,53.482,359.9095395,3.116839172,C3S1,-1.198190789,P.S.
57,JANGAON,Zafergad,Zafergad,17.7651,79.487,12.06,postmonsoon 2018 ,8.14,1857,1188.48,0,260,340,0.2,26.574,171,214,12,80,63.206,459.8930921,4.338678745,C3S1,-3.997861842,P.S.
58,JOGULAMBA(GADWAL),Alampur,Alampur,15.896441,78.121104,3.09,postmonsoon 2018 ,8.52,3290,2105.6,40,430.7977641,720,0.65,1.06296,136,714.8001947,5.9,32,4.862,99.99177632,31.0795473,C4S4,7.416119755,U.S.
59,JOGULAMBA(GADWAL),Dharoor,Dharoor,16.224385,77.678908,24.01,postmonsoon 2018 ,7.98,2000,1280,0,356.3603859,340,2.52,149.92165,32,92.84248259,6.6,56,160.446,799.7286184,1.427406237,C3S1,-8.867364649,P.S.
60,JOGULAMBA(GADWAL),Dharoor,Neelahally,16.265211,77.641794,21.17,postmonsoon 2018 ,7.72,2120,1356.8,0,382.9369833,390,1.04,21.812825,95,196.2029156,3.3,112,87.516,639.8519737,3.372390552,C3S1,-5.138299807,P.S.
61,JOGULAMBA(GADWAL),Gadwal,Gadwal,16.2326,77.8021,4.58,postmonsoon 2018 ,7.69,2890,1849.6,0,414.942978,600,0.45,68.2066,110,218.734442,3.3,120,165.308,979.7203947,3.038353229,C4S1,-11.29554833,P.S.
62,JOGULAMBA(GADWAL),Gattu,Gattu,16.1287,77.5757,4.88,postmonsoon 2018 ,8.3,1304,834.56,20,275.9653557,190,0.616,77.9504,18,44.22634977,1.89,184,24.31,559.9588816,0.812596957,C3S1,-5.279870517,P.S.
63,JOGULAMBA(GADWAL),Ieeza,Ieeza,16.01518,77.671609,21.05,postmonsoon 2018 ,8.4,2780,1779.2,40,664.1472968,370,0.719,134.6416,40,568.3305615,6.6,24,24.31,159.9588816,19.53750018,C4S4,10.8837683,U.S.
64,JOGULAMBA(GADWAL),K-T Doddi,Kondapur,16.0701,77.8315,4.23,postmonsoon 2018 ,7.92,1266,810.24,0,193.934322,180,0.46,183.13915,30,100.0220632,1.53,104,38.896,419.9342105,2.122156188,C3S1,-4.519997771,P.S.
65,JOGULAMBA(GADWAL),K-T Doddi,Kuchinerla,16.179,77.526,9.09,postmonsoon 2018 ,7.98,583,373.12,0,198.3671489,30,0.95,46.5045,10,24.83216741,0.37,56,24.31,239.9588816,0.696976888,C2S1,-0.831834654,P.S.
66,JOGULAMBA(GADWAL),Maldakal,Maldakal,16.129667,77.687599,3.5,postmonsoon 2018 ,7.91,1649,1055.36,0,300.5375921,260,3.08,153.90775,24,106.2358424,1.56,48,116.688,599.8026316,1.885988528,C3S1,-5.98530079,P.S.
67,JOGULAMBA(GADWAL),Manopad,Manopad,15.9656,77.9533,13.95,postmonsoon 2018 ,7.81,3380,2163.2,0,575.9846386,570,0.88,154.5721,162,589.2740193,51.6,32,68.068,359.8848684,13.50540662,C4S3,4.321995404,U.S.
68,JOGULAMBA(GADWAL),Waddepalli,Santhinagar,15.94,77.839,6.65,postmonsoon 2018 ,8.24,3260,2086.4,0,553.2378092,550,0.99,126.00505,176,409.5295499,12.7,80,131.274,739.7779605,6.546462941,C4S2,-3.730803026,P.S.
69,KAMAREDDY,Bansawada,Bansawada,18.393,77.879,4.5,postmonsoon 2018 ,8.21,1685,1078.4,0,489.7614248,80,4.9,108.5105,138.25,279.7578626,2.2,40,34.034,239.9424342,7.852373252,C3S1,4.996379813,U.S.
70,KAMAREDDY,Bhiknoor,Bhiknoor,18.196,78.399,22.39,postmonsoon 2018 ,8.04,1509,965.76,0,368.4292466,200,1.16,92.5661,21,87.94870116,8.57,120,63.206,559.8930921,1.616028589,C3S1,-3.829276909,P.S.
71,KAMAREDDY,Bhiknoor,P.D.Mallareddy,18.173,78.453,32.11,postmonsoon 2018 ,7.48,923,590.72,0,300.8101093,50,1.06,65.1063,31.75,75.48433963,1.63,56,38.896,299.9342105,1.895029704,C3S1,0.017517975,P.S.
72,KAMAREDDY,Bibipet,Bibipet,18.205,78.523,30.83,postmonsoon 2018 ,7.31,1059,677.76,0,235.1172326,150,1.12,80.38635,12.25,33.46075998,1.69,80,63.206,459.8930921,0.678390131,C3S1,-4.49551719,P.S.
73,KAMAREDDY,BICHKUNDA,Pulkal,18.399,77.767,5.32,postmonsoon 2018 ,7.23,1305,835.2,0,249.0475642,220,1.05,77.5075,23.25,79.92125619,4.17,144,29.172,479.9506579,1.586120469,C3S1,-4.618061875,P.S.
74,KAMAREDDY,Domakonda,Domakonda,18.25,78.436,30.32,postmonsoon 2018 ,7.64,1185,758.4,0,272.8950739,170,1.67,70.4211,16.5,107.3902156,3.93,88,34.034,359.9424342,2.461049525,C3S1,-1.740947206,P.S.
75,KAMAREDDY,Gandhari,Gandhari,18.396,78.107,19.82,postmonsoon 2018 ,7.85,980,627.2,0,391.4417759,50,1.74,12.246185,12.75,70.54645356,1.28,40,58.344,339.9013158,1.663684335,C3S1,1.030809203,P.S.
76,KAMAREDDY,Gandhari,Sarvapoor,18.3647,77.9851,14.83,postmonsoon 2018 ,7.79,985,630.4,0,333.3975339,70,1.62,52.97084,12.25,80.46929257,2,64,38.896,319.9342105,1.956014214,C3S1,0.269266468,P.S.
77,KAMAREDDY,Jukkal,Jukkal,18.364,77.604,7.42,postmonsoon 2018 ,7.32,3590,2297.6,0,552.000145,720,2.98,143.9425,90,409.1738344,190.5,112,97.24,679.8355263,6.823042712,C4S1,-2.556707626,P.S.
78,KAMAREDDY,Kamareddy,Adloor,18.3438,78.3435,22.15,postmonsoon 2018 ,7.8,624,399.36,0,189.9100716,60,2.01,34.5462,6.25,42.2707476,2.53,80,4.862,219.9917763,1.239107169,C2S1,-0.601634094,P.S.
79,KAMAREDDY,Kamareddy,Narasannapally,18.2686,78.3617,23.75,postmonsoon 2018 ,7.52,935,598.4,0,306.5545796,80,2.8,33.88185,15.5,77.92151393,2.2,88,19.448,299.9671053,1.956107552,C3S1,0.131749487,P.S.
80,KAMAREDDY,Lingampet,Bhavanipet,18.2791,78.058,7.63,postmonsoon 2018 ,7.45,1218,779.52,0,380.2096233,100,1.34,81.9365,15,106.1481337,3.44,88,38.896,379.9342105,2.367719913,C3S1,0.005508256,P.S.
81,KAMAREDDY,Machareddy,Machareddy,18.329,78.493,12.74,postmonsoon 2018 ,7.2,522,334.08,0,205.3209584,30,0.97,5.602685,6,19.47194868,1.02,64,14.586,219.9753289,0.570813969,C2S1,-0.29308741,P.S.
82,KAMAREDDY,Maddnur,Menoor,18.483,77.652,12.76,postmonsoon 2018 ,7.81,684,437.76,0,231.7319922,40,0.56,50.9335,9,45.93396045,4.37,72,14.586,239.9753289,1.289207307,C2S1,-0.164866735,P.S.
83,KAMAREDDY,Nagireddipet,Malthummeda,18.114,78.142,18.65,postmonsoon 2018 ,7.32,940,601.6,0,328.9507106,80,1.5,17.250955,9.25,51.24898723,2.63,72,43.758,359.9259868,1.174494127,C3S1,-0.619505526,P.S.
84,KAMAREDDY,Nasurullabad,Nasurullabad,18.468,77.873,2.49,postmonsoon 2018 ,7.32,881,563.84,0,353.1889565,40,1.5,14.460685,14.25,65.56554923,1.88,88,19.448,299.9671053,1.645928827,C3S1,1.064437024,P.S.
85,KAMAREDDY,Nizamsagar,Mohammadnagar,18.293098,77.908661,2.82,postmonsoon 2018 ,7.45,639,408.96,0,225.4979664,50,0.6,15.169325,7.75,37.77247864,0.48,64,19.448,239.9671053,1.060160922,C2S1,-0.289382777,P.S.
86,KAMAREDDY,Rajampet,Argonda,18.234,78.272,14.45,postmonsoon 2018 ,7.69,685,438.4,0,293.493258,20,1.37,8.63655,10,47.25617918,2.53,56,24.31,239.9588816,1.326362864,C2S1,1.070687528,P.S.
87,KAMAREDDY,RAMAREDDY,Reddypet,18.409,78.417,15.3,postmonsoon 2018 ,7.32,959,613.76,0,300.531409,100,1.1,39.19665,1.5,65.10218026,2.21,80,34.034,339.9424342,1.535200161,C3S1,-0.788220504,P.S.
88,KAMAREDDY,Sadasivanagar,Sadasivanagar,18.406,78.264,7.89,postmonsoon 2018 ,7.35,600,384,0,171.8470359,60,1.7,35.432,11.5,27.65815402,2.26,80,9.724,239.9835526,0.776255367,C2S1,-1.362730335,P.S.
89,KAMAREDDY,Tadwai,Yerrapahad,18.293,78.223,3.32,postmonsoon 2018 ,8.02,1020,652.8,0,254.9079567,100,0.98,106.7389,22,52.25441718,1.24,80,48.62,399.9177632,1.136082382,C3S1,-2.90019613,P.S.
90,KARIMNAGAR,Choppadandi,Rukmapur,18.5334,79.1461,12.28,postmonsoon 2018 ,8.16,443,283.52,0,160,20,0.29,31.003,32,57,3,16,19.448,119.9671053,2.262642445,C2S1,0.800657895,P.S.
91,KARIMNAGAR,Gangadhara,Gangadhara,18.579444,79.008888,14.9,postmonsoon 2018 ,8.25,722,462.08,0,220,70,1.04,31.40563636,51,89,5,32,29.172,199.9506579,2.736533392,C2S1,0.400986842,P.S.
92,KARIMNAGAR,Huzurabad,Huzurabad,18.189488,79.407573,6.88,postmonsoon 2018 ,8.07,666,426.24,0,180,50,0.74,45.49790909,56,75,4,24,29.172,179.9506579,2.430841869,C2S1,0.000986842,P.S.
93,KARIMNAGAR,Saidapur,Saidapur,18.2148,79.305174,11.68,postmonsoon 2018 ,8.24,872,558.08,0,170,80,1.28,142.3319545,66,114,2,32,34.034,219.9424342,3.342123558,C3S1,-0.998848684,P.S.
94,KARIMNAGAR,Thimmapur,Alugunur,18.400873,79.151234,5.81,postmonsoon 2018 ,8.27,352,225.28,0,120,20,0.87,20.73577273,32,44,4,16,14.586,99.97532895,1.913279506,C2S1,0.400493421,P.S.
95,KHAMMAM,Bonakal,Mustikunta,17.040809,80.223141,1.38,postmonsoon 2018 ,7.25,2430,1555.2,0,416.512779,400,0.66,221.45,42,129.4793928,4.7,48,199.342,939.6628289,1.8364825,C4S1,-10.463001,P.S.
96,KHAMMAM,Kallur,Kallur,17.21,80.5467,2.6,postmonsoon 2018 ,8.25,1014,648.96,0,162.1474986,190,1.14,62.006,21,100.3156578,11,40,43.758,279.9259868,2.606869437,C3S1,-2.355569765,P.S.
97,KHAMMAM,Kamepalli,Kothalingala,17.429453,80.237801,5.63,postmonsoon 2018 ,8.4,940,601.6,40,171.8690718,120,0.83,86.3655,14,84.85990054,8,104,4.862,279.9917763,2.204966748,C3S1,-1.36245409,P.S.
98,KHAMMAM,Khammam (R ),M.V.Palem,17.2967,80.0969,2.85,postmonsoon 2018 ,7.43,2530,1619.2,0,474.2730924,380,1.1,243.595,44,168.6257531,8.8,184,106.964,899.8190789,2.444097167,C4S1,-8.510919731,P.S.
99,KHAMMAM,Khammam(U),Khammam I,17.2333,80.1333,1.05,postmonsoon 2018 ,7.8,1092,698.88,0,405.2368415,80,2.03,12.4012,12,94.36825248,5,56,48.62,339.9177632,2.225415695,C3S1,1.306381567,MR
100,KHAMMAM,Khammam(U),Khammam-II,17.2525,80.1436,2.01,postmonsoon 2018 ,8.17,1435,918.4,0,420.2476493,150,1.18,66.435,24,125.7870809,8.9,24,92.378,439.84375,2.607708184,C3S1,-0.391922015,P.S.
101,KHAMMAM,Konijerla,Konijerla,17.2211,80.2908,2.12,postmonsoon 2018 ,7.75,1100,704,0,293.9329627,130,1.18,57.577,20,60.61068885,3,72,58.344,419.9013158,1.286020128,C3S1,-2.519367062,P.S.
102,KHAMMAM,Kusumanchi,Kusumanchi,17.2208,79.9583,7.9,postmonsoon 2018 ,7.69,1030,659.2,0,231.7532008,130,1.12,93.009,19,35.72279257,2,112,38.896,439.9342105,0.740497673,C3S1,-4.163620195,P.S.
103,KHAMMAM,Mudigonda,Mudigonda,17.1875,80.0986,1.65,postmonsoon 2018 ,7.97,1055,675.2,0,287.2857324,90,1.09,110.725,18,48.39248297,6,72,58.344,419.9013158,1.026777757,C3S1,-2.652311667,P.S.
104,KHAMMAM,Sathupalli,Prakashnagar,17.1942,80.8942,38.25,postmonsoon 2018 ,7.84,695,444.8,0,211.7210458,70,0.88,27.4598,11,40.70985836,2,24,48.62,259.9177632,1.097877222,C2S1,-0.963934346,P.S.
105,KHAMMAM,Thallada,Anjanapuram,17.2147,80.4625,5.61,postmonsoon 2018 ,7.86,1705,1091.2,0,470.8198856,220,1.52,35.432,33,164.0807686,3.5,56,87.516,499.8519737,3.190870214,C3S1,-0.580641762,P.S.
106,KHAMMAM,Thirumalayapalem,Bachode,17.2997,79.9006,3.85,postmonsoon 2018 ,7.7,1725,1104,0,517.0686891,190,0.74,53.148,25,102.3019911,7,40,131.274,639.7779605,1.758496923,C3S1,-2.454185429,P.S.
107,KHAMMAM,Thirumalayapalem,Tirumalayapalem,17.317454,80.050896,2.55,postmonsoon 2018 ,7.75,1412,903.68,0,232.708683,160,0.7,263.5255,27,115.8534108,1,112,43.758,459.9259868,2.348751193,C3S1,-4.544346076,P.S.
108,KHAMMAM,Vemsur,Vemsur,17.1442,80.805,2.75,postmonsoon 2018 ,8.22,922,590.08,0,174.4241532,130,0.73,95.2235,21,103.5167455,0.5,32,38.896,239.9342105,2.905605748,C3S1,-1.310201147,P.S.
109,KHAMMAM,Yerrupalem,Banigandlapadu,16.86,80.48,16.1,postmonsoon 2018 ,7.75,967,618.88,0,388.2618294,20,1.19,64.2205,10,22.00807446,0.5,32,87.516,439.8519737,0.456247963,C3S1,-1.031802885,P.S.
110,KUMURAM BHEEM,Asifabad,Asifabad,19.359617,79.286065,20.3,postmonsoon 2018 ,7.98,1285,822.4,0,420,70,1.42,28.98981818,125,200,2,24,43.758,239.9259868,5.613885037,C3S1,3.601480263,U.S.
111,KUMURAM BHEEM,Kagaznagar,Kagaznagar,19.355709,79.496997,4.2,postmonsoon 2018 ,8.02,612,391.68,0,160,40,1.04,53.34931818,59,74,2,24,24.31,159.9588816,2.543898061,C2S1,0.000822368,P.S.
112,KUMURAM BHEEM,Kerameri,Kerameri,19.444,79.05625,9.58,postmonsoon 2018 ,7.48,702,449.28,0,230,40,0.3,54.55722727,32,84,2,48,14.586,179.9753289,2.722356283,C2S1,1.000493421,P.S.
113,KUMURAM BHEEM,Kowthala,Kowthala,19.5219,79.7324,4.48,postmonsoon 2018 ,7.62,549,351.36,0,200,30,0.42,25.36609091,27,51,1,24,29.172,179.9506579,1.652972471,C2S1,0.400986842,P.S.
114,KUMURAM BHEEM,Rebbena,Rebbena II,19.257,79.415972,6.2,postmonsoon 2018 ,7.48,679,434.56,0,240,40,1.01,21.74236364,30,68,0.3,24,34.034,199.9424342,2.0908775,C2S1,0.801151316,P.S.
115,KUMURAM BHEEM,Tiryani,Tiryani,19.174472,79.27225,8.85,postmonsoon 2018 ,7.68,674,431.36,0,290,30,0.79,16.30677273,30,55,15,32,43.758,239.9259868,1.543818385,C2S1,1.001480263,P.S.
116,MAHABUBABAD,Dhantalapally,Dhantalapally,17.5147,79.7347,4.3,postmonsoon 2018 ,8.28,1846,1181.44,0,280,260,2.94,82.54045455,197,249,2,56,58.344,379.9013158,5.554386698,C3S1,-1.998026316,P.S.
117,MAHABUBABAD,Dornakal,Mannegudem,17.374115,80.043883,5.73,postmonsoon 2018 ,8.31,1296,829.44,60,510,30,3.76,6.844818182,56,141,2,40,68.068,379.8848684,3.145323206,C3S1,3.802302632,U.S.
118,MAHABUBABAD,Kesamudram,Kesamudram,17.6816,79.9069,5.8,postmonsoon 2018 ,8.26,1135,726.4,0,300,70,2.85,64.42181818,103,92,1,40,63.206,359.8930921,2.108498207,C3S1,-1.197861842,P.S.
119,MAHABUBABAD,Koravi,Ayyagaripally,17.503,79.9886,3.59,postmonsoon 2018 ,8.35,1212,775.68,60,230,90,2.11,68.44818182,127,59,3,56,82.654,479.8601974,1.171026738,C3S1,-3.797203947,P.S.
120,MAHABUBABAD,Mahabubabad,Mahabubabad,17.5983,80.0011,5.1,postmonsoon 2018 ,8.33,1096,701.44,30,200,50,4.24,70.46136364,171,103,1,16,68.068,319.8848684,2.503874402,C3S1,-1.797697368,P.S.
121,MAHABUBABAD,Marripeda,Marripeda,17.3852,79.8941,6.7,postmonsoon 2018 ,8.12,1896,1213.44,0,310,260,2.06,82.54045455,177,306,9,32,43.758,259.9259868,8.252180899,C3S2,1.001480263,P.S.
122,MAHABUBABAD,Nellikudur,Nellikudur,17.5897,79.7597,6.69,postmonsoon 2018 ,8.15,212,135.68,0,30,20,0.11,22.54763636,31,22,1,8,9.724,59.98355263,1.235033542,C1S1,-0.599671053,P.S.
123,MAHABUBABAD,Torrur,Torrur,17.5836,79.6611,8.19,postmonsoon 2018 ,7.98,1774,1135.36,0,280,260,1.17,102.6722727,143,166,2,64,87.516,519.8519737,3.165486046,C3S1,-4.797039474,P.S.
124,MAHABUBNAGAR,Bhoothpur,Elkicherla,16.623,78.116,19.59,postmonsoon 2018 ,8.16,398,254.72,0,112.4008831,50,0.19,1.99305,12,35.93565348,2.25,40,4.862,119.9917763,1.426336413,C2S1,-0.151817865,P.S.
125,MAHABUBNAGAR,CC Kunta,Damagnapur,16.4997,77.7554,5.08,postmonsoon 2018 ,8.39,637,407.68,60,173.5035021,50,0.52,1.10725,10,63.72342624,2.5,32,24.31,179.9588816,2.065307109,C2S1,1.070892411,P.S.
126,MAHABUBNAGAR,CC Kunta,Kurumurthy,16.441442,77.816757,23.24,postmonsoon 2018 ,8.45,711,455.04,80,106.4767662,100,0.68,7.0864,18,71.00984334,3.69,48,19.448,199.9671053,2.183290066,C2S1,-0.269806782,P.S.
127,MAHABUBNAGAR,CC Kunta,Thirmalapur,16.48271,77.824269,6.78,postmonsoon 2018 ,8.34,517,330.88,40,143.3229446,40,0.76,1.99305,14,53.76548932,3.3,40,9.724,139.9835526,1.975773977,C2S1,0.866787839,P.S.
128,MAHABUBNAGAR,Devarkadara,Devarakadra,16.6058,77.832836,11.44,postmonsoon 2018 ,8.3,1941,1242.24,0,544.4160821,250,2.24,14.6157,50,274.7317129,2.4,48,63.206,379.8930921,6.128444532,C3S2,3.2904598,U.S.
129,MAHABUBNAGAR,Hanwada,Hanwada,16.808381,77.897252,20.49,postmonsoon 2018 ,8.1,1546,989.44,0,196.3152925,270,0.58,188.2325,35,99.51565681,3.55,80,87.516,559.8519737,1.82863476,C3S1,-7.270733624,P.S.
130,MAHABUBNAGAR,Jadcherla,Jadcherla,16.774181,78.122404,22.35,postmonsoon 2018 ,7.79,1669,1068.16,0,185.2007054,350,1.38,133.7558,38,64.66671084,1.9,120,97.24,699.8355263,1.062808314,C3S1,-10.29269642,P.S.
131,MAHABUBNAGAR,Koilkonda,Dammaipally,16.759993,77.89946,14.05,postmonsoon 2018 ,7.84,1473,942.72,0,232.7465643,280,0.65,93.67335,25,119.9665707,2.47,104,53.482,479.9095395,2.380963386,C3S1,-4.943259503,P.S.
132,MAHABUBNAGAR,Mahabubnagar (R) ,Kodur,16.68,77.924,19.63,postmonsoon 2018 ,8.33,1211,775.04,20,264.8113081,190,1.25,39.861,14,156.5653097,8.8,48,34.034,259.9424342,4.222105826,C3S1,0.497377478,P.S.
133,MAHABUBNAGAR,Mahabubnagar(U),Yenugonda,16.761294,78.020981,18.13,postmonsoon 2018 ,7.98,1856,1187.84,0,312.0216578,350,1.26,108.0676,25,174.6639509,29.5,64,87.516,519.8519737,3.330700599,C3S1,-4.156606318,P.S.
134,MAHABUBNAGAR,Midjil,Kothapalli,16.7506,78.2315,15.34,postmonsoon 2018 ,8,1974,1263.36,0,366.622134,350,1.22,107.6247,29,263.9425723,2.5,56,68.068,419.8848684,5.600367115,C3S1,-1.065254689,P.S.
135,MAHABUBNAGAR,Nawabpet,Nawabpet,16.888,78.0239,11.07,postmonsoon 2018 ,8.06,1667,1066.88,0,186.1912569,330,0.69,188.2325,21,119.4802649,1.78,56,106.964,579.8190789,2.157357356,C3S1,-7.87255644,P.S.
136,MANCHERIAL,Bellampally,Bellampally I,19.072027,79.503111,15.24,postmonsoon 2018 ,7.49,758,485.12,0,220,70,0.29,21.33972727,40,52,4,32,43.758,259.9259868,1.402331395,C3S1,-0.798519737,P.S.
137,MANCHERIAL,Chennur,Chennur I,18.852222,79.780222,6.66,postmonsoon 2018 ,7.64,678,433.92,0,220,80,0.74,12.28040909,38,84,1,40,24.31,199.9588816,2.582742449,C2S1,0.400822368,P.S.
138,MANCHERIAL,Jaipur,Jaipur,18.844277,79.579972,2.97,postmonsoon 2018 ,8.43,2783,1781.12,50,320,540,0.92,3.019772727,327,576,4,16,43.758,219.9259868,16.88715045,C4S4,3.001480263,U.S.
139,MANCHERIAL,Mandamarri,Mandamarri,18.978679,79.477854,3.68,postmonsoon 2018 ,7.72,1255,803.2,0,170,170,0.26,18.52127273,205,174,1,48,34.034,259.9424342,4.692268135,C3S1,-1.798848684,P.S.
140,MANCHERIAL,Tandur,Tandur ,19.157871,79.456254,14.47,postmonsoon 2018 ,7.7,528,337.92,0,170,60,0.4,43.48472727,42,40,6,48,29.172,239.9506579,1.122719286,C2S1,-1.399013158,P.S.
141,MANCHERIAL,Vemanpally,Neelwai,19.04799,79.81505,0.78,postmonsoon 2018 ,7.58,689,440.96,0,220,60,0.39,2.818454545,32,36,2,48,34.034,259.9424342,0.970814097,C2S1,-0.798848684,P.S.
142,MEDAK,Chegunta,Chegunta,17.9341,78.5186,26.12,postmonsoon 2018 ,7.79,802,513.28,0,337.0102441,30,2.29,14.1728,6,92.85292624,2.5,40,24.31,199.9588816,2.854942787,C3S1,2.741027251,U.S.
143,MEDAK,Havelighanpur,Mutayapally,18.0845,78.2189,16.79,postmonsoon 2018 ,7.75,841,538.24,0,258.2009705,90,0.9,20.59485,14,65.52229149,1.81,64,29.172,279.9506579,1.702630839,C3S1,-0.434993748,P.S.
144,MEDAK,Kulcharam,Rangampet,17.9451,78.1176,41.7,postmonsoon 2018 ,7.74,1090,697.6,0,356.7968476,110,1.02,17.49455,13,95.48600542,2.31,56,48.62,339.9177632,2.251774824,C3S1,0.337581688,P.S.
145,MEDAK,Medak,Medak,18.0528,78.2708,16.45,postmonsoon 2018 ,8.05,804,514.56,0,188.1867722,130,0.88,19.9305,10,56.94063963,1.8,48,38.896,279.9342105,1.479675616,C3S1,-1.834948766,P.S.
146,MEDAK,Narasapur,Narasapur,17.735,78.2819,19.83,postmonsoon 2018 ,7.92,1450,928,0,218.9210881,280,0.93,101.867,21,105.2190557,2.85,72,77.792,499.8684211,2.046155867,C3S1,-5.618946658,P.S.
147,MEDAK,Narasapur,Reddypally,17.7856,78.2633,18.84,postmonsoon 2018 ,7.4,2070,1324.8,0,309.1461123,400,1.21,143.9425,34,201.693798,5.5,96,87.516,599.8519737,3.580491623,C4S2,-5.814117227,P.S.
148,MEDAK,Papannapet,Papannapet,18.04217,78.085354,21.28,postmonsoon 2018 ,7.75,1350,864,0,438.516296,130,1.16,26.574,24,100.9264493,1.93,64,72.93,459.8766447,2.046239583,C3S1,-0.427206974,P.S.
149,MEDAK,Regode,T.lingampally,17.943349,77.827959,11.46,postmonsoon 2018 ,7.8,870,556.8,0,147.0444787,170,0.98,29.89575,19,74.57495511,13.5,72,19.448,259.9671053,2.01097173,C3S1,-2.258452531,P.S.
150,MEDAK,Shankarampet ,Gavvalapalli,18.0517,77.9172,13.47,postmonsoon 2018 ,8.2,830,531.2,0,166.4274112,150,1.73,20.15195,16,72.73548026,0.85,48,34.034,259.9424342,1.961461933,C3S1,-1.870300461,P.S.
151,MEDAK,Shankarampet R,Shankarampet,17.971,78.372,19.96,postmonsoon 2018 ,7.43,2830,1811.2,0,337.6767061,590,1.14,232.5225,42,305.9359156,3.3,160,87.516,759.8519737,4.82545345,C4S1,-8.443505351,P.S.
152,MEDAK,Shivampet,Shivampet,17.7863,78.37,19.85,postmonsoon 2018 ,7.51,2110,1350.4,0,212.4227157,480,0.75,155.015,29,119.7580697,4.2,160,97.24,799.8355263,1.841096727,C3S1,-11.74825621,P.S.
153,MEDAK,Shivampet,Gudur,17.7817,78.3674,25.01,postmonsoon 2018 ,7.67,1721,1101.44,0,209.0156994,320,0.63,201.5195,28,138.4252969,6.5,96,77.792,559.8684211,2.543575549,C3S1,-7.017054433,P.S.
154,MEDAK,Shivampet,Usrikapally,17.8211,78.3949,23.6,postmonsoon 2018 ,8.16,714,456.96,0,266.6117541,40,1.34,24.8024,10,63.58111447,1.87,48,24.31,219.9588816,1.863929787,C2S1,0.93305745,P.S.
155,MEDAK,Tekmal,Tekmal,17.9754,78.0304,30.59,postmonsoon 2018 ,8.16,1310,838.4,0,264.9932882,170,0.75,155.015,18,91.93025039,1.44,48,82.654,459.8601974,1.863878919,C3S1,-3.897338183,P.S.
156,MEDAK,Toopran,Islampur,17.8772,78.4746,37.3,postmonsoon 2018 ,7.98,350,224,0,113.627387,30,1.57,13.7299,6,25.34785991,1.3,32,9.724,119.9835526,1.006126537,C2S1,-0.127123313,P.S.
157,MEDAK,Toopran,Toopran,17.8413,78.4775,9.66,postmonsoon 2018 ,7.45,2920,1868.8,0,172.1695995,770,0.32,186.018,36,169.4580472,5,264,106.964,1099.819079,2.221640259,C4S1,-18.55298959,P.S.
158,MEDAK,Yeldurthy,Edulapally,17.9672,78.3492,22.53,postmonsoon 2018 ,8.23,382,244.48,0,136.1340537,30,0.57,2.87885,8,22.0852428,3.85,32,14.586,139.9753289,0.811612251,C2S1,-0.076825506,P.S.
159,MEDAK,Yeldurthy,Kukunoor,17.9146,78.3208,4.75,postmonsoon 2018 ,7.62,710,454.4,0,194.748032,80,0.86,37.6465,13,44.80065673,0.95,48,34.034,259.9424342,1.20814192,C2S1,-1.303888044,P.S.
160,MEDAK,Yeldurthy,Ramayapally,17.9453,78.3213,12.83,postmonsoon 2018 ,8.24,381,243.84,0,121.8958017,40,0.57,2.43595,8,21.8373952,3.87,40,9.724,139.9835526,0.802480508,C2S1,-0.361755018,P.S.
161,MEDCHAL,Alwal,Old Alwal,17.494,78.508,9.36,postmonsoon 2018 ,7.29,870,556.8,0,340.3265974,50,3.6,9.07945,12,80.39848452,3.6,72,19.448,259.9671053,2.168007735,C3S1,1.607189842,MR
162,MEDCHAL,Balanagar,Balanagar 1,17.47,78.45,8.97,postmonsoon 2018 ,8.3,1085,694.4,0,337.9000242,120,1.78,12.62265,19,158.9467674,1.9,40,24.31,199.9588816,4.887125755,C3S1,2.758822852,U.S.
163,MEDCHAL,Kukatpally,Kaithalapur,17.47,78.4,4.84,postmonsoon 2018 ,7.49,2250,1440,0,388.5544577,460,1.28,54.9196,31,189.9321594,2.7,192,58.344,719.9013158,3.077755998,C4S1,-6.626937161,P.S.
164,MEDCHAL,Kukatpally,Kukatpally 1,17.481,78.397,22.01,postmonsoon 2018 ,8.14,412,263.68,0,153.6031013,30,0.42,2.2145,6,19.80130163,3.94,40,14.586,159.9753289,0.680674369,C2S1,-0.127444553,P.S.
165,MEDCHAL,Malkajgiri,Malkajgiri,17.449,78.535,19.46,postmonsoon 2018 ,7.47,1668,1067.52,0,342.726715,240,2.46,143.0567,28,99.84615619,4.17,200,29.172,619.9506579,1.743512044,C3S1,-5.544478858,P.S.
166,MEDCHAL,Qutubullapur,Gajularamaram 2,17.53,78.42,9.79,postmonsoon 2018 ,7.17,1051,672.64,0,390.1001688,50,1.05,50.71205,18,105.5447845,1.05,88,19.448,299.9671053,2.649550036,C3S1,1.802661271,MR
168,MEDCHAL,Qutubullapur,Qutubullapur 2,17.5,78.46,31.13,postmonsoon 2018 ,7.82,1411,903.04,0,376.3478181,200,0.92,38.0894,9,151.7265771,2.2,56,58.344,379.9013158,3.384530448,C3S1,-0.071069954,P.S.
170,MULUGU,Eturu Nagaram,Eturu Nagaram (D),18.359652,80.440017,13.02,postmonsoon 2018 ,8.36,240,153.6,30,40,20,0.07,79.35580223,10,19,1,16,14.586,79.97532895,0.923735741,C1S1,-0.199506579,P.S.
171,MULUGU,Eturu Nagaram,Eturu Nagaram (S),18.3374,80.4232,13.15,postmonsoon 2018 ,8.16,340,217.6,0,120,30,0.16,9.8080205,8,33,1,24,9.724,99.98355263,1.434900615,C2S1,0.400328947,P.S.
172,MULUGU,Govindaraopet,Pasra,18.207438,80.171524,2.62,postmonsoon 2018 ,7.81,1612,1031.68,0,380,250,1.3,10.69965873,84,223,0.5,40,58.344,339.9013158,5.258968919,C3S1,0.801973684,P.S.
173,MULUGU,Govindaraopet,Project Nagar,18.2616,80.1944,3.59,postmonsoon 2018 ,8.08,1569,1004.16,0,520,110,1.04,45.47354959,121,257,11,40,34.034,239.9424342,7.213595024,C3S1,5.601151316,U.S.
174,NAGARKURNOOL,Amarabad,Domalapenta,16.211577,78.87839,6.06,postmonsoon 2018 ,7.2,1059,677.76,0,212.0815183,150,0.27,101.20265,18.25,69.39478669,18.77,80,38.896,359.9342105,1.590330711,C3S1,-2.957053844,P.S.
175,NAGARKURNOOL,Balmur,Balmur,16.331127,78.566382,23.38,postmonsoon 2018 ,7.49,1574,1007.36,0,409.6734947,210,1.26,73.5214,13.5,73.42677121,12,152,58.344,619.9013158,1.282228177,C3S1,-4.204556422,P.S.
176,NAGARKURNOOL,Bijinepalli,Bijinepalli,16.535278,78.196422,22.76,postmonsoon 2018 ,7.03,1986,1271.04,0,399.6103422,320,1.06,137.52045,20.5,82.90497879,2.28,120,126.412,819.7861842,1.258932598,C3S1,-8.403516839,P.S.
177,NAGARKURNOOL,Kalwakuthy,Kalwakuthy,16.667,78.488,31.75,postmonsoon 2018 ,7.58,2060,1318.4,0,354.8408403,330,2.4,223.88595,18.25,98.97333282,4.2,104,136.136,819.7697368,1.502949603,C3S1,-9.298577931,P.S.
178,NAGARKURNOOL,Kodair,Kodair,16.269624,78.274343,2.65,postmonsoon 2018 ,7.26,1475,944,0,486.8347484,130,1.83,58.24135,12.5,84.12445627,1.67,88,82.654,559.8601974,1.545804751,C3S1,-1.460508979,P.S.
179,NAGARKURNOOL,Kollapur,Kollapur,16.107,78.306,1.73,postmonsoon 2018 ,7.29,2742,1754.88,0,417.3675018,600,1.19,84.151,25,240.9355435,0.9,136,126.412,859.7861842,3.572545807,C4S1,-8.848373648,P.S.
180,NAGARKURNOOL,Lingal,Ambatipally,16.277,78.446,4.53,postmonsoon 2018 ,7.82,1299,831.36,0,401.1507603,130,2.89,52.2622,15.75,135.3795653,1.4,48,58.344,359.9013158,3.102655538,C3S1,0.82498889,P.S.
181,NAGARKURNOOL,Nagarkurnool,Nagarkurnool,16.491743,78.302619,25,postmonsoon 2018 ,7.34,1592,1018.88,0,341.3790364,240,1.5,108.73195,19.75,130.537583,0.22,112,58.344,519.9013158,2.489128244,C3S1,-3.570445587,P.S.
182,NAGARKURNOOL,Telkapally,Telkapally,16.435091,78.440307,3.3,postmonsoon 2018 ,7.34,2870,1836.8,0,581.6253822,420,0.79,256.66055,38.25,243.8144868,15.3,120,145.86,899.7532895,3.5340277,C4S1,-6.362558145,P.S.
183,NAGARKURNOOL,Thimmajipet,Gummakonda,16.6224,78.19,15.55,postmonsoon 2018 ,7.5,1169,748.16,0,367.2432106,80,0.56,104.5244,13.75,13.34107229,1.14,112,68.068,559.8848684,0.245139636,C3S1,-3.852833157,P.S.
184,NAGARKURNOOL,Uppununuthala,Uppununthala,16.450018,78.591328,9.84,postmonsoon 2018 ,7.3,1287,823.68,0,345.4325897,150,0.76,85.4797,10.75,21.71424667,2.27,72,102.102,599.8273026,0.385481745,C3S1,-5.087894258,P.S.
185,NAGARKURNOOL,Veldanda,Veldanda,16.73106,78.5211,29.72,postmonsoon 2018 ,7.18,3730,2387.2,0,390.8383193,620,0.881,664.35,43.75,218.9643425,6.2,280,170.17,1399.712171,2.544639075,C4S1,-20.17747703,P.S.
186,NALGONDA,Advidevulapally,Ulsaipalem,16.706822,79.499703,0.57,postmonsoon 2018 ,8.09,1012,647.68,0,282.8193913,130,1.59,13.46416,23,77.89601718,1.41,56,48.62,339.9177632,1.836963329,C3S1,-1.141967438,P.S.
187,NALGONDA,Anumula,Anumula,16.798786,79.289548,16.41,postmonsoon 2018 ,8.88,1705,1091.2,60,617.5004009,20,4.56,143.0567,22,375.8479706,3.1,8,5,40,25.83773133,C3S4,12.75000802,U.S.
188,NALGONDA,Anumula,Chintagudem,16.833094,79.292086,3.47,postmonsoon 2018 ,8.25,430,275.2,0,143.234135,40,0.35,0.8858,12,33.75748878,2.95,48,4.862,139.9917763,1.24048362,C2S1,0.064847175,P.S.
189,NALGONDA,Anumula,Rajavaram,16.68016,79.407512,7.84,postmonsoon 2018 ,7.75,1764,1128.96,0,301.6927609,310,0.54,34.878375,102,115.1167124,0.52,160,58.344,639.9013158,1.978581939,C3S1,-6.764171099,P.S.
190,NALGONDA,Anumula,Sreerampur,16.729108,79.304637,5.35,postmonsoon 2018 ,8.15,1409,901.76,0,343.2149609,200,0.82,39.19665,39,114.6073525,1.94,104,48.62,459.9177632,2.323510034,C3S1,-2.334056045,P.S.
191,NALGONDA,Chandampet,Chandampet,16.578477,78.888363,12.09,postmonsoon 2018 ,7.19,1830,1171.2,0,383.0599851,320,1.44,48.719,31,175.8569102,1.5,152,38.896,539.9342105,3.290494579,C3S1,-3.137484509,P.S.
192,NALGONDA,Chandur,Angadipet,16.984083,79.018416,13.84,postmonsoon 2018 ,9,2530,1619.2,60,483.2437132,310,3.48,284.3418,41,483.7845573,4.7,24,38.896,219.9342105,14.18331574,C4S4,6.466190054,U.S.
193,NALGONDA,Chandur,Bangarigadda,16.984666,79.011361,14.245,postmonsoon 2018 ,8.33,1450,928,20,542.2682701,80,3.13,29.6743,18,289.6110546,2.1,16,14.586,99.97532895,12.59333853,C3S3,9.245858823,U.S.
194,NALGONDA,Chandur,Chandur,16.9681,79.0601,10.64,postmonsoon 2018 ,8.92,1163,744.32,40,349.8326311,60,1.84,94.55915,24,102.959453,2.8,56,53.482,359.9095395,2.359618061,C3S1,0.598461833,P.S.
195,NALGONDA,Chandur,Sirdepally,17.014888,79.063083,13.61,postmonsoon 2018 ,8.84,1161,743.04,40,284.2767722,130,1.91,58.68425,19,112.0377129,2.23,32,63.206,339.8930921,2.64219721,C3S1,-0.312326398,P.S.
196,NALGONDA,Chityala,Veliminedu,17.228916,79.020166,28.96,postmonsoon 2018 ,7.9,1480,947.2,0,298.1381315,180,1.01,198.19775,20,94.43889745,1.75,80,82.654,539.8601974,1.767186632,C3S1,-4.834441317,P.S.
197,NALGONDA,Devarakonda,Padamtipally,16.67664,78.797379,17.29,postmonsoon 2018 ,7.95,823,526.72,0,203.4671549,60,1.13,133.7558,11,23.38753429,3.79,72,43.758,359.9259868,0.535981746,C3S1,-3.129176638,P.S.
198,NALGONDA,Devarakonda,Tatikole,16.625235,78.856645,24.34,postmonsoon 2018 ,8.65,745,476.8,40,274.5623056,20,2.64,14.1728,14,152.4908123,3.7,8,4.862,39.99177632,10.48408406,C2S2,5.491410586,U.S.
199,NALGONDA,Gundlapally,Vavikole,16.675791,78.76505,7.17,postmonsoon 2018 ,9.21,3450,2208,60,970.5889634,370,3.76,134.6416,45,696.9715615,52.5,24,24.31,159.9588816,23.95979194,C4S4,17.41260164,U.S.
200,NALGONDA,Gurrampode,Gurrampode,16.851709,79.091378,2.14,postmonsoon 2018 ,7.3,1241,794.24,0,360.2593159,150,0.47,7.5293,35,57.93682515,0.61,176,14.586,499.9753289,1.126555441,C3S1,-2.79432026,P.S.
201,NALGONDA,Gurrampode,Koppole,16.914619,79.146882,1.3,postmonsoon 2018 ,8.13,406,259.84,0,101.4866788,60,0.35,1.660875,13,37.61758289,2.55,40,4.862,119.9917763,1.493094547,C2S1,-0.370101951,P.S.
202,NALGONDA,K.Mallepally,K.Mallepally,16.729392,78.981033,20.36,postmonsoon 2018 ,7.49,2740,1753.6,0,244.2159616,440,0.78,558.054,40,219.6721916,36.2,208,82.654,859.8601974,3.257116733,C4S1,-12.31288471,P.S.
203,NALGONDA,kanagala,kanagala,16.937341,79.198425,7.54,postmonsoon 2018 ,7.58,1292,826.88,0,293.4019471,210,0.97,24.58095,29,96.02446958,2.96,104,43.758,439.9259868,1.990509581,C3S1,-2.930480796,P.S.
204,NALGONDA,Kattangur,Cheruvu Annaram,17.198652,79.354249,39.75,postmonsoon 2018 ,7.29,2810,1798.4,0,260.7374567,770,0.41,20.28482,27,98.93572639,3.28,264,131.274,1199.777961,1.241866382,C4S1,-18.78081008,P.S.
205,NALGONDA,Kattangur,Kattangur,17.161891,79.320303,9.85,postmonsoon 2018 ,7.17,2670,1708.8,0,533.8639936,520,1.69,37.95653,23,332.9725306,3.6,144,63.206,619.8930921,5.814631174,C4S2,-1.720581969,P.S.
206,NALGONDA,Marriguda,Marriguda,16.939916,78.863805,12.98,postmonsoon 2018 ,7.65,1320,844.8,0,283.20758,200,3.3,77.0646,25,94.19945782,1.48,112,43.758,459.9259868,1.909750325,C3S1,-3.534368137,P.S.
207,NALGONDA,Munugode,Kistapur,17.156249,79.017026,13.46,postmonsoon 2018 ,8.1,1497,958.08,0,480.4154311,170,2.36,2.6574,18,216.7556348,3.8,32,48.62,279.9177632,5.632838903,C3S1,4.009953358,U.S.
208,NALGONDA,Munugode,Kompalli,17.099308,78.993715,9.43,postmonsoon 2018 ,7.17,1926,1232.64,0,388.3180803,320,0.717,106.296,27,176.2833391,7.4,176,34.034,579.9424342,3.182665443,C3S1,-3.832487078,P.S.
209,NALGONDA,Nakrekal,Arlagaddagudam,17.139111,79.400636,14.58,postmonsoon 2018 ,7.98,1411,903.04,0,364.4676613,210,1.29,25.001705,17,150.5274091,4.2,104,29.172,379.9506579,3.357562844,C3S1,-0.309659931,P.S.
210,NALGONDA,Nakrekal,Nakrekal,17.159338,79.420978,10.65,postmonsoon 2018 ,7.64,1620,1036.8,0,278.3064137,320,0.68,45.84015,34,97.78230805,4.35,208,19.448,599.9671053,1.735676279,C3S1,-6.433213832,P.S.
211,NALGONDA,Nakrekal,Vallabhapur,17.238945,79.479895,2.08,postmonsoon 2018 ,8.33,1767,1130.88,20,328.1154673,350,1.18,9.96525,24,247.0493225,12,64,43.758,339.9259868,5.825908343,C3S1,0.16378961,P.S.
212,NALGONDA,Nalgonda,Mushampally,16.97492,79.32478,16.87,postmonsoon 2018 ,8.3,1352,865.28,20,285.3571038,200,0.88,58.9057,33,143.7238086,8.1,104,24.31,359.9588816,3.293627153,C3S1,-1.092035556,P.S.
213,NALGONDA,Nalgonda,S L B C G V guda,17.060183,79.300907,5.7,postmonsoon 2018 ,7.62,487,311.68,0,106.4166034,80,0.369,2.546675,19,37.38850751,3.66,40,14.586,159.9753289,1.285238679,C2S1,-1.071174511,P.S.
214,NALGONDA,Nalgonda,Seetarampuram,17.110312,79.216751,11.11,postmonsoon 2018 ,8.6,781,499.84,40,149.7509705,90,0.64,60.89875,20,77.82966687,4.1,56,19.448,219.9671053,2.281594524,C3S1,-0.604322695,P.S.
215,NALGONDA,Narketpalli,Akkenepally,17.290078,79.235645,1.9,postmonsoon 2018 ,7.71,2270,1452.8,0,349.8810551,510,1.39,12.22404,43,239.8172365,4,144,63.206,619.8930921,4.187879333,C4S2,-5.40024074,P.S.
216,NALGONDA,Narketpalli,Narketpalli,17.20025,79.191305,19.47,postmonsoon 2018 ,8.2,809,517.76,0,313.920877,20,3.92,46.5045,20,37.40802198,5.7,64,38.896,319.9342105,0.909298695,C3S1,-0.12026667,P.S.
217,NALGONDA,Nidamanuru,Nidamanur,16.84,79.285277,4.67,postmonsoon 2018 ,7.78,2020,1292.8,0,397.0572093,330,1.78,117.58995,41,374.3006246,36.3,48,9.724,159.9835526,12.86634071,C3S3,4.741473134,U.S.
218,NALGONDA,P.A Pally,Angadipet,16.716555,79.084472,9.02,postmonsoon 2018 ,7.09,1715,1097.6,0,280.5587825,260,0.57,217.9068,25,109.7419942,5.94,160,53.482,619.9095395,1.916376568,C3S1,-6.787015139,P.S.
219,NALGONDA,Peddavoora,Velmaguda,16.77852,79.18302,13.93,postmonsoon 2018 ,8.46,691,442.24,40,227.0898493,40,2.71,3.63178,15,104.575608,1.29,16,19.448,119.9671053,4.151179114,C2S1,2.942454881,U.S.
220,NALGONDA,Shaligowraram,P.Kondaram,17.249444,79.423055,11.69,postmonsoon 2018 ,7.97,2380,1523.2,0,476.0389755,430,1.6,96.77365,17,284.1420921,3.4,88,87.516,579.8519737,5.130375677,C4S2,-2.076259964,P.S.
221,NALGONDA,Thiparthy,Thipparthy,17.01375,79.418305,8.055,postmonsoon 2018 ,7.54,1310,838.4,0,308.0032189,220,1.07,9.07945,22,87.13108243,9.56,96,53.482,459.9095395,1.766481381,C3S1,-3.038126411,P.S.
222,NALGONDA,Thiparthy,Mamidala,17.065212,79.465001,12.84,postmonsoon 2018 ,7.47,4850,3104,0,582.3434453,950,1.01,420.755,134,366.6563255,197.5,184,228.514,1399.613487,4.261154552,C4S2,-16.34540083,P.S.
224,NARAYANPET,Kosigi,Kosigi,16.984631,77.705505,13.32,postmonsoon 2018 ,7.15,2260,1446.4,0,155.1278664,440,0.71,376.465,38,71.86106115,4.14,184,126.412,979.7861842,0.998159936,C4S1,-16.49316636,P.S.
225,NARAYANPET,Maddur,Maddur,16.857,77.607,13.07,postmonsoon 2018 ,7.61,1248,798.72,0,154.4600544,270,0.83,83.04375,15,58.30705248,2.79,120,48.62,499.9177632,1.133819619,C3S1,-6.909154175,P.S.
226,NARAYANPET,Makthal,Makthal,16.500518,77.500096,13.88,postmonsoon 2018 ,8.36,920,588.8,40,192.7563774,140,0.87,2.87885,22,101.9702086,2.32,56,24.31,239.9588816,2.862048949,C3S1,-0.144050083,P.S.
227,NARAYANPET,Marikal,Marikal,16.592044,77.698167,15.26,postmonsoon 2018 ,8.29,879,562.56,0,388.6899247,20,2.04,14.83715,6,83.4421257,1.98,72,19.448,259.9671053,2.250081889,C3S1,2.574456388,U.S.
228,NARAYANPET,Narayanpet,Kollampally,16.667939,77.616892,7.19,postmonsoon 2018 ,8.76,1170,748.8,100,362.6428692,60,2.02,29.2314,8,150.7620236,2.5,16,53.482,259.9095395,4.06586554,C3S1,4.054666595,U.S.
229,NARAYANPET,Narayanpet,Kotakonda,16.754004,77.637795,7.99,postmonsoon 2018 ,8.06,1704,1090.56,0,167.347134,350,0.75,192.88295,26,180.0455177,7.2,96,53.482,459.9095395,3.650213517,C3S1,-5.85124811,P.S.
230,NARAYANPET,Narayanpet,Narayanapet,16.7423,77.4812,14.71,postmonsoon 2018 ,7.49,1596,1021.44,0,373.5708319,190,1.11,144.16395,31,111.6911638,2.61,64,97.24,559.8355263,2.052394078,C3S1,-3.725293888,P.S.
231,NARAYANPET,Narva,Narva,16.4706,77.6567,18.51,postmonsoon 2018 ,8.19,1878,1201.92,0,536.4386198,240,1.35,42.0755,20,215.3232932,0.36,32,97.24,479.8355263,4.273827386,C3S1,1.132061869,P.S.
232,NARAYANPET,Utkoor,Utkoor,16.6407,77.5003,7.56,postmonsoon 2018 ,8.12,957,612.48,0,241.1174051,120,0.56,55.3625,18,100.1396797,4.41,56,29.172,259.9506579,2.70042986,C3S1,-0.376665055,P.S.
233,NARAYANPET,Utkoor,Chinnaporla,16.581217,77.516956,8.8,postmonsoon 2018 ,7.9,3500,2240,0,415.1882403,720,1.43,310.03,50,422.9361745,6.5,104,140.998,839.7615132,6.345546243,C4S2,-8.491465458,P.S.
234,NIRMAL,Kadam,Kadam,19.096611,78.775944,2.01,postmonsoon 2018 ,8.16,645,412.8,0,210,50,1.27,32.21090909,47,53,3,32,38.896,239.9342105,1.48765404,C2S1,-0.598684211,P.S.
235,NIRMAL,Khanapur,Khanapur,19.047089,78.662131,6.33,postmonsoon 2018 ,8.18,654,418.56,0,210,40,0.48,46.10186364,67,61,2,32,38.896,239.9342105,1.712205593,C2S1,-0.598684211,P.S.
236,NIRMAL,Kubeer,Kubeer,19.2495,77.945833,4.53,postmonsoon 2018 ,8.33,590,377.6,0,200,40,0.64,44.29,35,59,2,24,34.034,199.9424342,1.814143713,C2S1,0.001151316,P.S.
237,NIRMAL,Kuntala,Kuntala,19.1693,78.1004,11.59,postmonsoon 2018 ,8.24,918,587.52,0,230,90,1.05,27.17795455,109,87,5,32,53.482,299.9095395,2.184219483,C3S1,-1.398190789,P.S.
238,NIRMAL,Laxmanchanda,Laxmanchanda,19.017055,78.460861,1.76,postmonsoon 2018 ,8.27,554,354.56,0,130,60,0.23,34.42540909,72,63,1,24,29.172,179.9506579,2.04190717,C2S1,-0.999013158,P.S.
239,NIRMAL,Lokeswaram,Abdullapur,18.9703,78.0378,14.39,postmonsoon 2018 ,8.26,441,282.24,0,80,70,0.34,27.58059091,44,57,3,24,14.586,119.9753289,2.262564897,C2S1,-0.799506579,P.S.
240,NIRMAL,Lokeswaram,Lokeswaram,19.0245,78.0899,8.63,postmonsoon 2018 ,8.29,446,285.44,0,180,20,0.67,7.650090909,16,41,3,16,24.31,139.9588816,1.506800616,C2S1,0.800822368,P.S.
241,NIRMAL,Mamada,Mamada,19.077972,78.522916,2.52,postmonsoon 2018 ,8.01,620,396.8,0,160,70,0.66,43.88736364,73,69,2,32,34.034,219.9424342,2.022864259,C2S1,-1.198848684,P.S.
242,NIRMAL,Nirmal,Nirmal,19.092416,78.343527,2.57,postmonsoon 2018 ,8.32,342,218.88,20,90,30,0.31,2.617136364,39,43,2,16,14.586,99.97532895,1.869795881,C2S1,0.200493421,P.S.
243,NIRMAL,Sarangapur,Beeravelly,19.139638,78.261972,12.82,postmonsoon 2018 ,8.1,546,349.44,0,180,40,1.26,32.41222727,45,60,2,24,29.172,179.9506579,1.944673495,C2S1,0.000986842,P.S.
244,NIRMAL,Tanur,Bhosi,19.109333,77.879444,25.08,postmonsoon 2018 ,8.27,1095,700.8,0,180,170,0.17,182.7969091,112,148,3,40,63.206,359.8930921,3.391931898,C3S1,-3.597861842,P.S.
245,NIZAMABAD,Armoor,perkit,18.808,78.315,8.67,postmonsoon 2018 ,7.59,1302,833.28,0,255.417806,140,1.1,209.27025,22,79.85293591,3.14,96,58.344,479.9013158,1.58484605,C3S1,-4.489670196,P.S.
246,NIZAMABAD,Bheemgal,Bheemgal,18.715,78.442,10.93,postmonsoon 2018 ,7.42,2430,1555.2,0,452.601682,470,0.83,78.8362,23,147.4961885,5.3,96,160.446,899.7286184,2.137948277,C4S1,-8.942538729,P.S.
247,NIZAMABAD,Bodhan,Bodhan,18.6705,77.8925,4.75,postmonsoon 2018 ,7.24,1856,1187.84,0,403.8887012,250,0.964,162.5443,30,171.5126738,3.5,176,29.172,559.9506579,3.151327228,C3S1,-3.121239135,P.S.
248,NIZAMABAD,Darpally,Ramadugu,18.613,78.309,8.13,postmonsoon 2018 ,7.23,1173,750.72,0,228.6890146,230,1.24,8.437245,20,87.66690542,1.46,80,48.62,399.9177632,1.905998231,C3S1,-3.424574971,P.S.
249,NIZAMABAD,Dichpally,Yanampally,18.627,78.249,7.83,postmonsoon 2018 ,7.92,587,375.68,0,211.199135,40,1,12.97697,12,34.05380163,1.9,64,14.586,219.9753289,0.99827634,C2S1,-0.175523878,P.S.
250,NIZAMABAD,Indalwai,Gannaram,18.512497,78.234885,3.8,postmonsoon 2018 ,7.08,1728,1105.92,0,207.1695842,300,0.699,240.4947,30,95.43079899,4.11,192,43.758,659.9259868,1.615150918,C3S1,-9.055128052,P.S.
251,NIZAMABAD,Jakrampally,Jakrampally,18.7072,78.2716,10.57,postmonsoon 2018 ,7.59,649,415.36,0,178.8319982,70,0.928,37.42505,13,38.98749683,2.37,56,24.31,239.9588816,1.094281613,C2S1,-1.222537667,P.S.
252,NIZAMABAD,Kammarapalli,Inayathnagar,18.708681,78.564875,5.49,postmonsoon 2018 ,7.52,1778,1137.92,0,325.8779176,300,1.08,122.6833,31,121.9907584,41.27,152,48.62,579.9177632,2.202499859,C3S1,-5.080796912,P.S.
253,NIZAMABAD,Kotagiri,Kallur,18.515955,77.77381,9.73,postmonsoon 2018 ,7.59,1919,1228.16,0,412.4614016,260,1.27,38.75375,134,215.73876,0.16,96,63.206,499.8930921,4.195287948,C3S1,-1.748633811,P.S.
254,NIZAMABAD,Morthad,Morthad,18.826,78.449,16.24,postmonsoon 2018 ,7.4,1404,898.56,0,157.1197349,260,0.852,189.1183,18,76.33240433,2.46,152,38.896,539.9342105,1.428271214,C3S1,-7.656289512,P.S.
255,NIZAMABAD,Mugpal,Manchippa,18.539,78.114,2.77,postmonsoon 2018 ,7.68,1506,963.84,0,318.5676553,180,0.969,186.23945,22,107.1757466,5.96,128,48.62,519.9177632,2.043625691,C3S1,-4.027002157,P.S.
256,NIZAMABAD,Mupkal,Mupkal,18.912998,78.361616,17.52,postmonsoon 2018 ,7.65,1161,743.04,0,256.247806,140,0.928,125.56215,19,84.98350433,1.27,96,38.896,399.9342105,1.847619434,C3S1,-2.873728091,P.S.
257,NIZAMABAD,Nandipet,Ailapoor,18.853,78.114,5.94,postmonsoon 2018 ,7.73,1356,867.84,0,336.8176553,180,1.13,79.2791,16,111.5437787,1.89,56,72.93,439.8766447,2.312341986,C3S1,-2.061179789,P.S.
258,NIZAMABAD,Nandipet,Nutpally,18.9365,78.2182,3.66,postmonsoon 2018 ,7.63,1007,644.48,0,207.1741592,160,1.09,56.91265,19,104.2529963,1.51,80,19.448,279.9671053,2.708988779,C3S1,-1.455858921,P.S.
259,NIZAMABAD,Nandipet,Velmal,18.831,78.143,10.47,postmonsoon 2018 ,7.16,1475,944,0,286.1175167,280,0.756,10.6296,39,157.598808,1.8,128,19.448,399.9671053,3.426201927,C3S1,-2.276991771,P.S.
260,NIZAMABAD,Nizamabad,Arsapally,18.685342,78.06863,3.95,postmonsoon 2018 ,7.6,1339,856.96,0,381.4181255,150,1.2,65.9921,16,70.41989156,2.54,72,82.654,519.8601974,1.342839885,C3S1,-2.768841438,P.S.
261,NIZAMABAD,Renjal,Dupally,18.733,77.991,14,postmonsoon 2018 ,7.52,1778,1137.92,0,325.8779176,300,1.08,122.6833,31,121.9907584,41.27,152,48.62,579.9177632,2.202499859,C3S1,-5.080796912,P.S.
262,NIZAMABAD,Rudrur,Rayakur,18.6102,77.8575,12.36,postmonsoon 2018 ,7.81,1249,799.36,0,307.1994847,200,1.74,17.93745,14,67.8796969,2.59,64,77.792,479.8684211,1.347258626,C3S1,-3.453378726,P.S.
263,NIZAMABAD,Sirikonda,Peddavolgote,18.604,78.426,6.33,postmonsoon 2018 ,7.97,1174,751.36,0,398.9585896,90,1.35,41.41115,21,104.6739926,4.21,80,38.896,359.9342105,2.398829551,C3S1,0.780487581,P.S.
264,NIZAMABAD,Vailpoor,Ankushpur,18.811,78.396,3.98,postmonsoon 2018 ,7.24,1268,811.52,0,282.2985263,170,0.913,105.18875,20,80.5001113,4.24,104,48.62,459.9177632,1.632031561,C3S1,-3.552384737,P.S.
265,NIZAMABAD,Vailpoor,Vailpoor,18.773,78.386,16.52,postmonsoon 2018 ,7.21,1549,991.36,0,251.4352232,320,0.871,56.2483,18,109.548683,3.28,120,58.344,539.9013158,2.049850234,C3S1,-5.769321852,P.S.
266,NIZAMABAD,Varni,Varni,18.543,77.903,6.83,postmonsoon 2018 ,7.7,813,520.32,0,341.360006,30,1.48,14.239235,7,59.43722198,1.11,48,38.896,279.9342105,1.544552514,C3S1,1.22851591,P.S.
267,NIZAMABAD,Yedapalli,Yedapalli,18.678,77.954,13.27,postmonsoon 2018 ,7.75,1186,759.04,0,411.6723991,90,2.17,34.302605,20,154.8754567,1.8,48,34.034,259.9424342,4.176535463,C3S1,3.034599297,U.S.
268,PEDDAPALLY,Dharmaram,Dharmaram,18.7453,79.1872,3.95,postmonsoon 2018 ,7.92,1552,993.28,0,200,270,0.74,31.003,178,209,28,40,48.62,299.9177632,5.247076015,C3S1,-1.998355263,P.S.
269,PEDDAPALLY,Eligedu,Eligedu,18.552157,79.260942,9.34,postmonsoon 2018 ,8.14,763,488.32,0,130,120,1.39,17.11204545,79,84,10,32,29.172,199.9506579,2.582795561,C3S1,-1.399013158,P.S.
270,PEDDAPALLY,Julapalli,Julapalli,18.6205,79.2492,3.98,postmonsoon 2018 ,7.03,1699,1087.36,0,120,190,4.43,1.811863636,180,136,1,40,43.758,279.9259868,3.534186498,C3S1,-3.198519737,P.S.
271,PEDDAPALLY,Odella,Odella,18.4528,79.46,3.66,postmonsoon 2018 ,7.92,1250,800,0,130,230,0.35,89.18395455,96,182,8,48,24.31,219.9588816,5.335471453,C3S1,-1.799177632,P.S.
272,PEDDAPALLY,Peddapalli,Peddapalli,18.6017,79.39,4.95,postmonsoon 2018 ,8.11,1210,774.4,0,150,180,1.49,110.9263182,86,145,21,48,29.172,239.9506579,4.06985741,C3S1,-1.799013158,P.S.
273,RANGAREDDY,Chevella,Alur,17.324,78.064,9.36,postmonsoon 2018 ,8.55,580,371.2,60,178.9222242,10,0.71,33.2175,7,14.1310685,1.75,48,34.034,259.9424342,0.381073347,C2S1,-0.420404199,P.S.
274,RANGAREDDY,Amangal,Amangal,16.8442,78.5425,10.18,postmonsoon 2018 ,7.53,1872,1198.08,0,320.7805306,270,0.65,239.166,31,121.5265423,1,168,63.206,679.8930921,2.026389802,C3S1,-7.182251231,P.S.
275,RANGAREDDY,Chevella,Dharmasagar,17.336,78.154,22.51,postmonsoon 2018 ,8.47,900,576,100,187.5182701,80,0.7,40.52535,12,32.06496904,3.8,88,38.896,379.9342105,0.71523505,C3S1,-1.848318809,P.S.
276,RANGAREDDY,Serilingampally,Gachibowli,17.43,78.368,,postmonsoon 2018 ,8.5,463,296.32,60,54.79771251,70,0.58,2.6574,13,41.8859952,2.17,40,9.724,139.9835526,1.539226377,C2S1,-0.503716802,P.S.
277,RANGAREDDY,Kandukur,Kandukur,17.08,78.48,12.79,postmonsoon 2018 ,7.9,955,611.2,0,362.193264,50,1.84,35.432,11,82.63768615,2.1,64,34.034,299.9424342,2.074585588,C4S2,1.245016597,P.S.
278,RANGAREDDY,Keshampet,Keshampet,16.943945,78.329383,14.13,postmonsoon 2018 ,7.59,1870,1196.8,0,148.31714,380,0.62,272.3835,21,101.4417798,3.1,152,82.654,719.8601974,1.643860438,C3S1,-11.43086115,P.S.
279,RANGAREDDY,Kothur,Kothur,17.1587,78.2879,12.3,postmonsoon 2018 ,7.56,2350,1504,0,190.4826464,530,0.65,205.9485,57,257.8130012,5,144,63.206,619.8930921,4.50213569,C4S1,-8.588208913,P.S.
280,RANGAREDDY,Madgula,Madgula,16.843335,78.687875,12.56,postmonsoon 2018 ,7.75,1262,807.68,0,312.8174172,180,0.97,42.29695,23,98.64370488,2.3,96,43.758,419.9259868,2.092932218,C3S1,-2.142171393,P.S.
281,RANGAREDDY,Maheswaram,Maheswaram,17.135,78.439,24.07,postmonsoon 2018 ,7.9,1130,723.2,0,262.8738397,150,1.64,88.58,13,76.98178831,2.65,72,53.482,399.9095395,1.673706403,C3S1,-2.740713995,P.S.
282,RANGAREDDY,Manchal,Manchal,17.16,78.739,14.85,postmonsoon 2018 ,8.39,1943,1243.52,40,324.8120526,340,4.77,101.867,34,257.3996798,1.4,32,82.654,419.8601974,5.461699647,C3S1,-1.100962895,P.S.
283,RANGAREDDY,Ibrahimpatnam,Mangalpally,17.22,78.598,10.95,postmonsoon 2018 ,8.57,970,620.8,80,254.8333454,60,1.59,59.7915,12,94.31462036,3.8,72,24.31,279.9588816,2.45077849,C3S1,1.097489277,P.S.
284,RANGAREDDY,Moinabad,Moinabad,17.33,78.29,18.45,postmonsoon 2018 ,7.82,1184,757.76,0,315.3506571,110,0.99,108.5105,27,51.88061293,4.1,88,63.206,479.8930921,1.029686486,C3S1,-3.290848701,P.S.
285,RANGAREDDY,Shamshabad,Palmokole,17.204,78.301,12.86,postmonsoon 2018 ,8.34,1010,646.4,40,309.9444606,80,1.66,25.46675,16,141.4692268,2,32,29.172,199.9506579,4.349834416,C3S1,2.999876053,U.S.
286,RANGAREDDY,Rajender Nagar,Rajender Nagar,17.316,78.405,10.72,postmonsoon 2018 ,7.56,4860,3110.4,0,556.1109258,1050,1.72,44.29,320,161.7915062,2.3,488,213.928,2099.638158,1.535167097,C4S1,-30.87054464,P.S.
287,RANGAREDDY,Farooqnagar,Shadnagar,17.063191,78.184623,37.68,postmonsoon 2018 ,7.72,1734,1109.76,0,316.7534751,310,2.05,106.296,18,97.65486215,2.75,128,82.654,659.8601974,1.652875221,C3S1,-6.862134445,P.S.
288,RANGAREDDY,Shahbad,Shahbad,17.202,78.104,20.52,postmonsoon 2018 ,8.27,473,302.72,0,190.7854009,20,1.19,9.7438,7,25.95773746,1.93,40,19.448,179.9671053,0.841283622,C2S1,0.216365912,P.S.
289,RANGAREDDY,Shankarpalli,Shankarpalli,17.453,78.131,18.7,postmonsoon 2018 ,7.89,1033,661.12,0,198.8604311,170,0.58,70.864,15,55.10541238,1.54,64,58.344,399.9013158,1.198091547,C3S1,-4.020817694,P.S.
290,RANGAREDDY,Talakondapalli,Talakondapalli,16.89,78.413,24.55,postmonsoon 2018 ,8,782,500.48,0,269.640006,30,1.49,84.151,7,33.36323429,1.92,56,43.758,319.9259868,0.810990095,C3S1,-1.005719616,P.S.
291,RANGAREDDY,Yacharam,Yacharam,17.05,78.67,20.26,postmonsoon 2018 ,8.45,1090,697.6,40,317.513903,70,2.11,77.5075,20,39.58012307,3.51,104,48.62,459.9177632,0.802433798,C3S1,-2.048077203,P.S.
292,SANGAREDDY,Andole,Jogipet,17.835805,78.072972,22.98,postmonsoon 2018 ,6.96,1466,938.24,0,353.6688518,210,1.47,70.864,18,118.3005616,2.57,64,77.792,479.8684211,2.347998877,C3S1,-2.523991385,P.S.
293,SANGAREDDY,Gummadiddla,Gummadiddla,17.6849,78.3679,22.35,postmonsoon 2018 ,7.58,1961,1255.04,0,456.6510068,270,0.53,139.5135,20,136.6798124,213.7,72,58.344,419.9013158,2.900032869,C3S1,0.73499382,P.S.
294,SANGAREDDY,Hathnoora,Borapatla,17.6713,78.1571,26.33,postmonsoon 2018 ,7.71,617,394.88,0,209.4435835,60,1.46,3.76465,8,31.34381556,2.74,40,34.034,239.9424342,0.879772731,C2S1,-0.609977014,P.S.
295,SANGAREDDY,Hathnoora,Nasthipur,17.7047,78.2185,33.03,postmonsoon 2018 ,7.65,749,479.36,0,184.1423177,80,1.75,70.864,16,43.85447438,2.32,56,34.034,279.9424342,1.139598075,C2S1,-1.91600233,P.S.
296,SANGAREDDY,Jinnaram,Ootla,17.6309,78.3194,21.13,postmonsoon 2018 ,7.17,982,628.48,0,158.0539332,220,1.14,20.8163,1,88.21230163,3.26,96,14.586,299.9753289,2.214412624,C3S1,-2.838427915,P.S.
297,SANGAREDDY,Kalher,Bachapally,18.1386,77.868,33.19,postmonsoon 2018 ,7.49,1486,951.04,0,407.3121038,200,1.25,34.1033,18,105.0818557,1.66,80,77.792,519.8684211,2.003794494,C3S1,-2.251126345,P.S.
298,SANGAREDDY,Kalher,Meerkhanpally,18.1237,77.8515,23.53,postmonsoon 2018 ,7.33,1349,863.36,0,351.6264648,180,1.82,46.28305,24,155.5836327,2.4,88,29.172,339.9506579,3.66883456,C3S1,0.233516139,P.S.
299,SANGAREDDY,Kandi,Byathole,17.6111,78.1892,31.94,postmonsoon 2018 ,7.42,1860,1190.4,0,171.8999814,400,1.79,192.6615,28.25,208.3860012,5,88,63.206,479.8930921,4.13588501,C3S1,-6.159862215,P.S.
300,SANGAREDDY,Patancheru ,Isnapur,17.5519,78.2006,12.78,postmonsoon 2018 ,7.87,1066,682.24,0,265.8204311,170,1.55,11.9583,12,89.49147492,3.01,72,38.896,339.9342105,2.110359254,C3S1,-1.482275589,P.S.
301,SANGAREDDY,Patancheru ,Patancheruvu,17.525833,78.270166,11.68,postmonsoon 2018 ,7.5,619,396.16,0,167.3295201,80,1.74,14.1728,14.25,41.53655991,1.81,72,9.724,219.9835526,1.217608254,C2S1,-1.053080651,P.S.
302,SANGAREDDY,R.C.Puram,R.C.Puram,17.5091,78.3003,28.03,postmonsoon 2018 ,7.32,920,588.8,0,226.2310798,140,1.91,19.0447,15.75,74.60801819,1.89,112,4.862,299.9917763,1.872849991,C3S1,-1.475213931,P.S.
303,SIDDIPET,Gajwel,Gajwel,17.8447,78.6847,18.64,postmonsoon 2018 ,8.15,617,394.88,0,139.8927818,20,0.97,154.79355,12,22.93834923,1.37,72,19.448,259.9671053,0.618550447,C2S1,-2.401486469,P.S.
304,SIDDIPET,Jagdevpur,Munigadapa,17.8133,78.8242,20.7,postmonsoon 2018 ,8.1,882,564.48,0,198.4039151,130,1.65,47.3903,16,74.85415728,2.15,48,38.896,279.9342105,1.945181368,C3S1,-1.630605909,P.S.
305,SIDDIPET,Mirdoddi,Bhoompalli,18.1208,78.5972,19.14,postmonsoon 2018 ,8.43,1198,766.72,80,260.8060579,130,1.48,60.89875,19,111.089953,2.8,56,53.482,359.9095395,2.545952332,C3S1,-0.382069631,P.S.
306,SIDDIPET,Mulugu,Mulugu,17.7214,78.6333,41.07,postmonsoon 2018 ,7.85,747,478.08,0,309.7554822,30,2.95,15.5015,5,52.41760271,2.6,64,24.31,259.9588816,1.413503828,C2S1,0.995932013,P.S.
307,SIDDIPET,Nanganur,Rampur,18.0888,78.9925,10.5,postmonsoon 2018 ,10.44,318,203.52,60,41.47786319,30,1.04,3.9861,10,26.43778932,2.45,24,9.724,99.98355263,1.149563641,C2S1,0.029886211,P.S.
308,SIDDIPET,Raipole,Raipole,17.9256,78.6181,26.7,postmonsoon 2018 ,8.34,572,366.08,60,78.74873419,20,1.47,133.7558,8,20.88274977,2.74,56,24.31,239.9588816,0.586126604,C2S1,-2.024202948,P.S.
309,SIDDIPET,Siddipet,Siddipet,18.1033,78.8375,7.02,postmonsoon 2018 ,8.22,861,551.04,0,197.8831194,120,1.5,50.0477,18,70.29350433,1.61,48,38.896,279.9342105,1.826666947,C3S1,-1.641021822,P.S.
310,SIDDIPET,Wargal,Majidpalli,17.8233,78.5866,8.55,postmonsoon 2018 ,8.53,383,245.12,40,109.8365913,20,0.64,3.9861,8,13.96250217,2.42,32,19.448,159.9671053,0.479976611,C2S1,-0.202610279,P.S.
311,SIRCILLA,Gambhiraopet,Narmal,18.283725,78.552568,12.67,postmonsoon 2018 ,7.19,1240,793.6,0,290,150,1.29,56.36909091,82,196,9,56,14.586,199.9753289,6.026151217,C3S1,1.800493421,MR
312,SIRCILLA,Illanthakunta,Illanthukunta ,18.311944,78.956388,18.9,postmonsoon 2018 ,8.28,1009,645.76,0,180,210,1.26,34.82804545,85,179,7,80,5,200,5.503135384,C3S1,-0.4,P.S.
313,SIRCILLA,Konaraopet,Nizamabad,18.4703,78.7189,9.95,postmonsoon 2018 ,8.12,726,464.64,0,270,30,1.11,64.42181818,29,116,5,32,14.586,139.9753289,4.262892735,C2S1,2.600493421,U.S.
314,SIRCILLA,Sircilla,Sircilla(urban),18.35555,78.78308,15.18,postmonsoon 2018 ,8.14,2019,1292.16,0,410,360,1.03,41.87418182,108,199,11,80,102.102,619.8273026,3.475280705,C3S1,-4.196546053,P.S.
315,SIRCILLA,Vemulawada,Vemulawada(rural),18.486422,78.863888,24.95,postmonsoon 2018 ,7.89,1556,995.84,0,280,230,1.77,102.6722727,100,136,34,80,58.344,439.9013158,2.819249044,C3S1,-3.198026316,P.S.
316,SIRCILLA,Yellareddipet,Racherla Boppaspur,18.377197,78.616814,25.49,postmonsoon 2018 ,7.96,903,577.92,0,220,130,0.94,52.34272727,79,132,2,56,24.31,239.9588816,3.704910155,C3S1,-0.399177632,P.S.
317,SURYAPET,Arvapally,Kodur,17.316549,79.622842,16.45,postmonsoon 2018 ,8.09,990,633.6,0,370.0174684,40,1.15,65.9921,10,82.12910913,1.14,80,29.172,319.9506579,1.996309035,C3S1,1.00133621,P.S.
318,SURYAPET,Arvapally,Nagaram,17.386693,79.496965,10.92,postmonsoon 2018 ,8.14,1363,872.32,0,255.5747349,260,0.98,41.85405,18,85.40600488,2.13,128,43.758,499.9259868,1.660763206,C3S1,-4.887025039,P.S.
319,SURYAPET,Chivemla,B. Chandupatla,17.141752,79.718667,5.68,postmonsoon 2018 ,7.98,1019,652.16,0,372.0712839,70,1.61,28.7885,10,69.61665085,2.59,88,34.034,359.9424342,1.59539698,C3S1,0.242576995,P.S.
320,SURYAPET,Mattampalle,Raghunadhapalem,16.753544,79.885324,8.16,postmonsoon 2018 ,7.86,1600,1024,0,260.7941141,330,1.42,11.9583,54,168.1888332,1.9,120,34.034,439.9424342,3.486353295,C3S1,-3.582966402,P.S.
321,SURYAPET,Mellacheruvu,Mellacheruvu,16.83738,79.904517,6.09,postmonsoon 2018 ,7.88,1292,826.88,0,413.1396294,130,1.02,9.52235,34,105.7912749,1.99,104,38.896,419.9342105,2.244560866,C3S1,-0.135891623,P.S.
322,SURYAPET,Nuthankal,Nuthankal,17.333829,79.691828,9.37,postmonsoon 2018 ,8.06,953,609.92,0,367.6615974,50,1.24,26.1311,12,36.05333963,2.31,96,38.896,399.9342105,0.783832715,C3S1,-0.645452263,P.S.
323,SURYAPET,Thungathurthi,Thungathurthi,17.398742,79.59122,2.69,postmonsoon 2018 ,7.99,1544,988.16,0,284.9221219,290,1.11,60.2344,21,106.0090289,7.31,136,48.62,539.9177632,1.983586813,C3S1,-5.099912825,P.S.
324,VIKARABAD,Bantwaram,Bantwaram,17.445,77.696,43.17,postmonsoon 2018 ,7.44,610,390.4,0,152.8008078,70,0.61,50.9335,9,48.81981502,1.54,32,29.172,199.9506579,1.501090494,C2S1,-0.942997003,P.S.
325,VIKARABAD,Basheerabad,Basheerabad,17.211,77.444,16.63,postmonsoon 2018 ,7.64,1330,851.2,0,161.7925107,250,0.92,152.8005,20,114.0632183,2.96,72,58.344,419.9013158,2.420160493,C3S1,-5.162176102,P.S.
326,VIKARABAD,Bomraspet,Bomraspet,17.164004,77.719418,24.27,postmonsoon 2018 ,8.56,670,428.8,40,193.5357264,60,1.24,6.42205,8,81.55781502,0.86,16,29.172,159.9506579,2.803785148,C2S1,1.47170137,MR
327,VIKARABAD,Dharoor,Dharoor,17.303,77.774,12.45,postmonsoon 2018 ,7.82,980,627.2,0,132.4873479,230,1.13,15.72295,15,51.42502361,2.5,64,53.482,379.9095395,1.147113958,C3S1,-4.948443831,P.S.
328,VIKARABAD,Doma,Doma,17.088,77.836,16.19,postmonsoon 2018 ,7.53,1371,877.44,0,211.5260128,300,1.5,31.4459,18,67.52827872,4.44,96,72.93,539.8766447,1.263602783,C3S1,-6.567012639,P.S.
329,VIKARABAD,Doulathabad,Doulathabad,16.9983,77.5415,12.17,postmonsoon 2018 ,7.89,660,422.4,0,223.7277878,50,1.37,31.22445,7,50.60750271,2.6,48,24.31,219.9588816,1.483598275,C2S1,0.075378125,P.S.
330,VIKARABAD,Kodangal,Kodangal,17.0992,77.6011,15.58,postmonsoon 2018 ,7.66,1705,1091.2,0,412.1889332,220,1.48,126.2265,19,100.4303429,2.2,144,68.068,639.8848684,1.726180432,C3S1,-4.553918704,P.S.
331,VIKARABAD,Kodangal,Rudraram (S),17.133,77.511,,postmonsoon 2018 ,7.87,670,428.8,0,232.615877,20,1.04,77.5075,8,17.37714551,0.5,56,38.896,299.9342105,0.436252169,C2S1,-1.34636667,P.S.
332,VIKARABAD,Marpalli,Marpalli,17.529,77.771,23.72,postmonsoon 2018 ,9.18,345,220.8,40,40.77897833,50,0.26,2.2145,17,43.88047755,14.74,8,9.724,59.98355263,2.463357347,C2S1,0.415908514,P.S.
333,VIKARABAD,Nawabpet,Vattinenipally(s),17.445,77.983,11.76,postmonsoon 2018 ,8.86,595,380.8,80,185.3353195,10,0.83,14.83715,3,27.64329683,0.33,56,24.31,239.9588816,0.775878266,C2S1,0.507528758,P.S.
334,VIKARABAD,Parigi,Parigi,17.18,77.88,25.15,postmonsoon 2018 ,8.22,610,390.4,0,165.8595359,60,0.56,50.9335,10,21.4156161,1.22,40,38.896,259.9342105,0.577525302,C2S1,-1.881493493,P.S.
335,VIKARABAD,Peddamul,Peddamul,17.33,77.66,19.46,postmonsoon 2018 ,7.65,1364,872.96,0,198.9701358,280,0.82,84.151,13,75.58033274,3.64,72,82.654,519.8601974,1.441244556,C3S1,-6.417801232,P.S.
336,VIKARABAD,Pudur,Pudur,17.264,77.957,14.48,postmonsoon 2018 ,8.34,260,166.4,20,51.63016276,20,0.2,33.2175,2,5.076154025,0.22,32,9.724,119.9835526,0.201486567,C2S1,-0.967067797,P.S.
337,VIKARABAD,Tandur,Tandur,17.251,77.591,7.94,postmonsoon 2018 ,7.87,1483,949.12,0,245.6334751,310,2.08,44.29,15,122.5261322,2.1,64,77.792,479.8684211,2.431866906,C3S1,-4.684698918,P.S.
338,VIKARABAD,Vikarabad ,Vikarabad(S),17.321,77.914,19.77,postmonsoon 2018 ,8.31,450,288,20,118.0448493,40,0.48,31.22445,3,21.54214977,0.36,32,24.31,179.9588816,0.698191508,C2S1,-0.838280645,P.S.
339,VIKARABAD,Yalal,Yalal,17.2,77.64,19.15,postmonsoon 2018 ,8.21,370,236.8,0,129.1686528,10,1.7,44.29,4,12.02327167,0.57,48,9.724,159.9835526,0.41329215,C2S1,-0.616297996,P.S.
340,WANAPARTHY,Atmakuru,Atmakuru,16.337,77.806,8.8,postmonsoon 2018 ,7.98,1164,744.96,0,376.4737742,120,2.46,0.68665,28.75,123.0606578,0.29,56,43.758,320,2.991345915,C3S1,1.130955747,P.S.
341,WANAPARTHY,Ghanpur,Ghanapur,16.56306,78.046454,7.12,postmonsoon 2018 ,8.13,2820,1804.8,0,623.7699339,460,1.83,88.6,50,322.1284826,3.2,24,160.446,720,5.220557757,C4S1,-1.91917369,P.S.
342,WANAPARTHY,Gopalpet,Gopalpet,16.3786,78.1348,4.7,postmonsoon 2018 ,8.22,1388,888.32,0,379.6644034,190,1.26,1.17395,37,173.7189712,2.65,32,58.344,320,4.222905856,C3S1,1.195261751,P.S.
343,WANAPARTHY,Kothakota,Kanaipally,16.388259,77.960249,12.43,postmonsoon 2018 ,7.71,1260,806.4,0,219.5487607,250,0.469,27.5546,28.25,125.9555755,2,72,43.758,360,2.886575747,C3S1,-2.807544523,P.S.
344,WANAPARTHY,Pangal,Pangal,16.24721,78.104481,11.6,postmonsoon 2018 ,8.19,1970,1260.8,0,392.4343899,320,1.25,127.584,27.5,224.302459,5.8,24,106.964,500,4.362141847,C3S1,-2.147693782,P.S.
345,WANAPARTHY,Pebbair,Ayyavaripalli,16.1156,78.0236,2.45,postmonsoon 2018 ,8.1,1215,777.6,0,172.6509412,240,0.56,69.7725,32.75,97.37056424,1.55,80,48.62,400,2.116969024,C3S1,-4.545336439,P.S.
346,WANAPARTHY,Peddamandadi,Peddamandadi,16.4306,78.0251,10,postmonsoon 2018 ,7.94,2430,1555.2,0,494.7210091,380,0.61,170.7765,33.25,273.3512098,25.85,96,87.516,600,4.852562282,C4S1,-2.102619292,P.S.
347,WARANGAL (R) ,Atmakur,Atmakur,18.0686,79.738,4.45,postmonsoon 2018 ,8.29,3814,2440.96,0,340,630,0.42,287.2810455,453,426,132,112,136.136,839.7697368,6.391483222,C4S2,-9.995394737,P.S.
348,WARANGAL (R) ,Chennaraopet,Chennaraopet,17.883,79.8722,3.65,postmonsoon 2018 ,8,462,295.68,0,130,50,2,44.49131818,36,44,3,16,34.034,179.9424342,1.426126483,C2S1,-0.998848684,P.S.
349,WARANGAL (R) ,Duggondi,Duggondi,18.0194,79.8077,5.59,postmonsoon 2018 ,8.02,425,272,0,130,40,1.11,34.82804545,22,36,2,16,29.172,159.9506579,1.237603843,C2S1,-0.599013158,P.S.
350,WARANGAL (R) ,Khanapur,Khanapur,17.8988,79.93,3.05,postmonsoon 2018 ,8.04,340,217.6,0,130,40,1.3,76.29959091,34,67,1,16,24.31,139.9588816,2.462332714,C2S1,-0.199177632,P.S.
351,WARANGAL (R) ,Narasampet,Narasampet,17.9227,79.8875,5.15,postmonsoon 2018 ,8.29,1127,721.28,0,290,120,2.38,69.25345455,57,116,7,32,58.344,319.9013158,2.819824892,C3S1,-0.598026316,P.S.
352,WARANGAL (R) ,Nekkonda,Ameenpet,17.8081,79.8003,4.24,postmonsoon 2018 ,8.28,1485,950.4,0,340,140,2.28,151.5925909,111,193,2,32,68.068,359.8848684,4.423313079,C3S1,-0.397697368,P.S.
353,WARANGAL (R) ,Parkal,Parkal,18.2016,79.6374,4.48,postmonsoon 2018 ,8.28,722,462.08,0,210,50,1.79,42.47813636,41,72,5,24,34.034,199.9424342,2.213870294,C2S1,0.201151316,P.S.
354,WARANGAL (R) ,Parvathagiri,Parvathagiri,17.744466,79.723991,16.1,postmonsoon 2018 ,8.19,1244,796.16,0,270,170,0.7,37.24386364,123,134,46,40,53.482,319.9095395,3.25734206,C3S1,-0.998190789,P.S.
355,WARANGAL (R) ,Rayaparthy,Rayaparthy,17.6942,79.5473,9.94,postmonsoon 2018 ,8.21,1381,883.84,0,180,260,0.43,47.51109091,152,154,8,64,58.344,399.9013158,3.348239135,C3S1,-4.398026316,P.S.
356,WARANGAL (R) ,Sangem,Sangem,17.8844,79.7113,4.4,postmonsoon 2018 ,8.25,1118,715.52,0,260,170,0.83,2.415818182,81,128,8,32,53.482,299.9095395,3.213564297,C3S1,-0.798190789,P.S.
357,WARANGAL (R) ,Wardhannapet,Wardhannapet,17.773,79.5794,8.96,postmonsoon 2018 ,8.17,1394,892.16,0,310,200,0.77,47.10845455,115,152,2,72,58.344,419.9013158,3.225092194,C3S1,-2.198026316,P.S.
358,WARANGAL (U),Bheemadevarapallly,Vangara,18.133888,79.345,13.7,postmonsoon 2018 ,7.66,717,458.88,0,80,140,1.59,22.34631818,90,61,2,40,38.896,259.9342105,1.645016575,C2S1,-3.598684211,P.S.
359,WARANGAL (U),Dharmasagar,Narayanagiri,17.9905,79.3769,7.62,postmonsoon 2018 ,7.59,1510,966.4,0,100,240,0.68,130.8568182,199,120,9,88,63.206,479.8930921,2.381667667,C3S1,-7.597861842,P.S.
360,WARANGAL (U),Hanamkonda,Hanumkonda,18.0008,79.5577,10.36,postmonsoon 2018 ,7.62,1128,721.92,0,120,210,1.8,48.92031818,106,111,8,56,43.758,319.9259868,2.698176675,C3S1,-3.998519737,P.S.
361,WARANGAL (U),Hanamkonda,Mamnoor,17.9069,79.5969,6.57,postmonsoon 2018 ,7.42,750,480,0,290,20,4.97,5.636909091,39,58,7,24,43.758,239.9259868,1.628026661,C3S1,1.001480263,P.S.
362,WARANGAL (U),Hasanparthi,Seethampet,18.0776,79.5153,5.13,postmonsoon 2018 ,7.45,946,605.44,0,280,90,1.96,27.37927273,75,75,6,24,68.068,339.8848684,1.768754314,C3S1,-1.197697368,P.S.
363,WARANGAL (U),Kamalapur,Shanigaram,18.184083,79.597194,6.12,postmonsoon 2018 ,7.69,2315,1481.6,0,320,340,0.1,134.8831818,233,256,102,112,43.758,459.9259868,5.190009525,C4S2,-2.798519737,P.S.
364,WARANGAL (U),warangal,Charbowli,17.9819,79.607,7.28,postmonsoon 2018 ,7.63,700,448,0,200,80,1.13,19.9305,45,61,5,24,43.758,239.9259868,1.712234936,C2S1,-0.798519737,P.S.
365,YADADRI,Alair,Kolanpaka,17.69706,79.019595,22.66,postmonsoon 2018 ,7.8,1780,1139.2,0,493.7687012,250,1.12,7.9722,18,204.088137,12,64,68.068,439.8848684,4.230779719,C3S1,1.077676655,P.S.
366,YADADRI,B.Pochampalli,B.Pochampalli,17.336196,78.810768,8.76,postmonsoon 2018 ,6.6,2850,1824,0,420.9032914,580,0.8,7.30785,28,264.1625851,4,216,77.792,859.8684211,3.916764593,C4S1,-8.779302592,P.S.
368,YADADRI,Choutuppal,D.Malkapur,17.258259,78.803218,5.56,postmonsoon 2018 ,7.14,1812,1159.68,0,502.0249549,170,1.71,7.30785,29,142.7847594,35,128,58.344,559.9013158,2.623603938,C3S1,-1.157527218,P.S.
369,YADADRI,Mothukur,Kanchanapalli,17.40375,79.339638,7.45,postmonsoon 2018 ,7.51,1610,1030.4,0,519.8285956,120,0.49,6.42205,16,205.8761231,20,56,48.62,339.9177632,4.855022145,C3S2,3.598216649,U.S.
370,YADADRI,Rajapet,Bondugala,17.768305,78.9665,11.64,postmonsoon 2018 ,6.81,2110,1350.4,0,327.7191262,390,0.64,7.9722,23,135.2891455,9,240,38.896,759.9342105,2.133767617,C3S1,-8.644301687,P.S.
372,YADADRI,Rajapet,Rajapet,17.729431,78.932968,12.64,postmonsoon 2018 ,7.24,2010,1286.4,0,269.9465253,480,1.9,0.66435,25,124.8112546,3,184,68.068,739.8848684,1.995004318,C3S1,-9.398766863,P.S.
373,YADADRI,Rajapet,Somaram,17.725671,78.991785,20.33,postmonsoon 2018 ,7.77,870,556.8,0,349.9857203,30,1.6,26.1311,7,35.94681076,1,72,43.758,359.9259868,0.823807852,C3S1,-0.19880533,P.S.
374,YADADRI,Ramannapet,Ramanapet,17.283121,79.095091,11.9,postmonsoon 2018 ,7.22,2280,1459.2,0,505.2484872,370,2.2,21.2592,17,251.3515851,4,112,77.792,599.8684211,4.461961231,C4S2,-1.892398676,P.S.
375,YADADRI,S.Narayanpur,S.Narayanpur,17.144719,78.86001,25.46,postmonsoon 2018 ,6.95,1950,1248,0,440.9044094,220,1.12,19.70905,17,148.257707,2,160,63.206,659.8930921,2.509300378,C3S1,-4.379773654,P.S.
376,YADADRI,Thurkapally,Gandamalla,17.733101,78.853831,8.39,postmonsoon 2018 ,7.45,2330,1491.2,0,519.8119591,270,1.8,1.99305,37,175.2754183,28,120,111.826,759.8108553,2.764651726,C4S1,-4.799977922,P.S.
377,YADADRI,Valigonda,T. somaram,17.399953,78.95229,21.21,postmonsoon 2018 ,7.26,1275,816,0,283.8345419,90,2.8,29.2314,11,147.2480573,3,64,38.896,319.9342105,3.579244751,C3S1,-0.721993372,P.S.
378,YADADRI,Valigonda,Vemulakonda,17.347782,79.143433,4.54,postmonsoon 2018 ,7.27,5440,3481.6,0,438.3062545,1500,0.78,167.19475,43,597.8544632,6,424,92.378,1439.84375,6.850305768,C4S2,-20.03074991,P.S.
379,YADADRI,Y.Gutta,Mallapuram,17.633555,78.911638,30.15,postmonsoon 2018 ,7.2,1745,1116.8,0,384.5861756,320,3.18,121.7975,14,163.8370391,4,152,34.034,519.9424342,3.123968335,C3S1,-2.707125173,P.S.